[{"name": " Il\u00f4t Sancho", "url": "/Ilot-Sancho-Surf-Report/2759/", "country": {"iso": "mu"}, "region": {"_id": 58}, "lon": 57.4496, "hasNetcam": false, "lat": -20.508, "_id": 2759, "description": ""}, {"name": " La Jetee", "url": "/La-Jetee-Surf-Report/2767/", "country": {"iso": "re"}, "region": {"_id": 58}, "lon": 55.4764, "hasNetcam": false, "lat": -21.3478, "_id": 2767, "description": ""}, {"name": "Aigrettes", "url": "/Aigrettes-Surf-Report/2764/", "country": {"iso": "re"}, "region": {"_id": 58}, "lon": 55.2162, "hasNetcam": false, "lat": -21.035, "_id": 2764, "description": ""}, {"name": "Black Rocks (Mauritius)", "url": "/Black-Rocks-Mauritius-Surf-Report/2760/", "country": {"iso": "mu"}, "region": {"_id": 58}, "lon": 57.3654, "hasNetcam": false, "lat": -20.3187, "_id": 2760, "description": ""}, {"name": "Boucan", "url": "/Boucan-Surf-Report/589/", "country": {"iso": "re"}, "region": {"_id": 58}, "lon": 55.2242, "hasNetcam": false, "lat": -21.0282, "_id": 589, "description": ""}, {"name": "Cap Requin", "url": "/Cap-Requin-Surf-Report/2763/", "country": {"iso": "re"}, "region": {"_id": 58}, "lon": 55.2291, "hasNetcam": false, "lat": -21.0224, "_id": 2763, "description": ""}, {"name": "Darne", "url": "/Darne-Surf-Report/4294/", "country": {"iso": "mu"}, "region": {"_id": 58}, "lon": 57.7098, "hasNetcam": false, "lat": -20.4523, "_id": 4294, "description": "A reef break located just behind lIle des Deux Cocos. Its a isolated and beautiful place with a wonderful landscape. The wave runs for about 25 to 75m with some barrels when the wind turns north, offshore, no wind or with a big swell. It starts to work at 2ft to 8ft+. At low tide its shallow and so it can be dangerous and the current can be strong in the pass.The best season is summer but in winter when the wind is light you can have some nice sessions. The best swell direction is south-east and east, with a south or south-west swell the waves close out."}, {"name": "Graveyards (Mauritius)", "url": "/Graveyards-Mauritius-Surf-Report/2758/", "country": {"iso": "mu"}, "region": {"_id": 58}, "lon": 57.5033, "hasNetcam": false, "lat": -20.5269, "_id": 2758, "description": ""}, {"name": "Harbour Riviere Noire", "url": "/Harbour-Riviere-Noire-Surf-Report/2761/", "country": {"iso": "mu"}, "region": {"_id": 58}, "lon": 57.3511, "hasNetcam": false, "lat": -20.3564, "_id": 2761, "description": ""}, {"name": "L\u00c9tang-Sal\u00e9", "url": "/LEtang-Sale-Surf-Report/4109/", "country": {"iso": "re"}, "region": {"_id": 58}, "lon": 55.3279, "hasNetcam": false, "lat": -21.266, "_id": 4109, "description": " "}, {"name": "LHermitage", "url": "/LHermitage-Surf-Report/2765/", "country": {"iso": "re"}, "region": {"_id": 58}, "lon": 55.2223, "hasNetcam": false, "lat": -21.0861, "_id": 2765, "description": ""}, {"name": "La Caffrine", "url": "/La-Caffrine-Surf-Report/2768/", "country": {"iso": "re"}, "region": {"_id": 58}, "lon": 55.2008, "hasNetcam": false, "lat": -21.1831, "_id": 2768, "description": ""}, {"name": "La Digue", "url": "/La-Digue-Surf-Report/4108/", "country": {"iso": "re"}, "region": {"_id": 58}, "lon": 55.2196, "hasNetcam": false, "lat": -21.059, "_id": 4108, "description": ""}, {"name": "La Ferme", "url": "/La-Ferme-Surf-Report/596/", "country": {"iso": "mu"}, "region": {"_id": 58}, "lon": 63.32, "hasNetcam": false, "lat": -19.74, "_id": 596, "description": "This forecast applies to all of Rodrigues"}, {"name": "Le Port", "url": "/Le-Port-Surf-Report/2769/", "country": {"iso": "re"}, "region": {"_id": 58}, "lon": 55.2821, "hasNetcam": false, "lat": -20.9332, "_id": 2769, "description": ""}, {"name": "Maconde", "url": "/Maconde-Surf-Report/2762/", "country": {"iso": "mu"}, "region": {"_id": 58}, "lon": 57.3679, "hasNetcam": false, "lat": -20.4932, "_id": 2762, "description": ""}, {"name": "Manapany", "url": "/Manapany-Surf-Report/4110/", "country": {"iso": "re"}, "region": {"_id": 58}, "lon": 55.5864, "hasNetcam": false, "lat": -21.3727, "_id": 4110, "description": "Manapany"}, {"name": "Passe Jimmy.", "url": "/Passe-Jimmy-Surf-Report/3917/", "country": {"iso": "mu"}, "region": {"_id": 58}, "lon": 63.296, "hasNetcam": false, "lat": -19.703, "_id": 3917, "description": ""}, {"name": "Pic du Diable", "url": "/Pic-du-Diable-Surf-Report/2766/", "country": {"iso": "re"}, "region": {"_id": 58}, "lon": 55.4524, "hasNetcam": false, "lat": -21.3321, "_id": 2766, "description": ""}, {"name": "Pointe des Trois-Bassins", "url": "/Pointe-des-Trois-Bassins-Surf-Report/591/", "country": {"iso": "re"}, "region": {"_id": 58}, "lon": 55.2512, "hasNetcam": false, "lat": -21.1121, "_id": 591, "description": ""}, {"name": "Roches-Noires", "url": "/Roches-Noires-Surf-Report/590/", "country": {"iso": "re"}, "region": {"_id": 58}, "lon": 55.2164, "hasNetcam": false, "lat": -21.0454, "_id": 590, "description": ""}, {"name": "Saint-Leu", "url": "/Saint-Leu-Surf-Report/592/", "country": {"iso": "re"}, "region": {"_id": 58}, "lon": 55.2857, "hasNetcam": false, "lat": -21.1646, "_id": 592, "description": ""}, {"name": "Saint-Pierre", "url": "/Saint-Pierre-Surf-Report/593/", "country": {"iso": "re"}, "region": {"_id": 58}, "lon": 55.47, "hasNetcam": false, "lat": -21.32, "_id": 593, "description": ""}, {"name": "Souillac", "url": "/Souillac-Surf-Report/595/", "country": {"iso": "mu"}, "region": {"_id": 58}, "lon": 57.5221, "hasNetcam": false, "lat": -20.524, "_id": 595, "description": ""}, {"name": "Tamarin Bay", "url": "/Tamarin-Bay-Surf-Report/594/", "country": {"iso": "mu"}, "region": {"_id": 58}, "lon": 57.3721, "hasNetcam": false, "lat": -20.3269, "_id": 594, "description": ""}]