[{"name": "Acapulco", "url": "/Acapulco-Surf-Report/339/", "country": {"iso": "mx"}, "region": {"_id": 19}, "lon": -99.9, "hasNetcam": false, "lat": 16.82, "_id": 339, "description": ""}, {"name": "Aticama", "url": "/Aticama-Surf-Report/2063/", "country": {"iso": "mx"}, "region": {"_id": 19}, "lon": -105.202, "hasNetcam": false, "lat": 21.4819, "_id": 2063, "description": ""}, {"name": "Barra De La Cruz", "url": "/Barra-De-La-Cruz-Surf-Report/4686/", "country": {"iso": "mx"}, "region": {"_id": 19}, "lon": -95.9651, "hasNetcam": false, "lat": 15.8205, "_id": 4686, "description": ""}, {"name": "Barra de Potosi", "url": "/Barra-de-Potosi-Surf-Report/2073/", "country": {"iso": "mx"}, "region": {"_id": 19}, "lon": -101.453, "hasNetcam": false, "lat": 17.5387, "_id": 2073, "description": ""}, {"name": "Colotepec", "url": "/Colotepec-Surf-Report/2070/", "country": {"iso": "mx"}, "region": {"_id": 19}, "lon": -97.0144, "hasNetcam": false, "lat": 15.8041, "_id": 2070, "description": ""}, {"name": "Cuyutlan", "url": "/Cuyutlan-Surf-Report/2068/", "country": {"iso": "mx"}, "region": {"_id": 19}, "lon": -104.073, "hasNetcam": false, "lat": 18.9168, "_id": 2068, "description": ""}, {"name": "El Faro (Guerrero)", "url": "/El-Faro-Guerrero-Surf-Report/2069/", "country": {"iso": "mx"}, "region": {"_id": 19}, "lon": -102.167, "hasNetcam": false, "lat": 17.9215, "_id": 2069, "description": ""}, {"name": "El Paraiso", "url": "/El-Paraiso-Surf-Report/2067/", "country": {"iso": "mx"}, "region": {"_id": 19}, "lon": -103.99, "hasNetcam": false, "lat": 18.8732, "_id": 2067, "description": ""}, {"name": "Escolleras", "url": "/Escolleras-Surf-Report/2060/", "country": {"iso": "mx"}, "region": {"_id": 19}, "lon": -101.62, "hasNetcam": false, "lat": 17.6627, "_id": 2060, "description": ""}, {"name": "Hammerhead", "url": "/Hammerhead-Surf-Report/330/", "country": {"iso": "mx"}, "region": {"_id": 19}, "lon": -106.226, "hasNetcam": false, "lat": 21.3155, "_id": 330, "description": ""}, {"name": "La Bocana", "url": "/La-Bocana-Surf-Report/341/", "country": {"iso": "mx"}, "region": {"_id": 19}, "lon": -96.0509, "hasNetcam": false, "lat": 15.7868, "_id": 341, "description": ""}, {"name": "La Lancha", "url": "/La-Lancha-Surf-Report/4533/", "country": {"iso": "mx"}, "region": {"_id": 19}, "lon": -105.494, "hasNetcam": false, "lat": 20.7634, "_id": 4533, "description": ""}, {"name": "La Punta - Playa Zicatela", "url": "/La-Punta-Playa-Zicatela-Surf-Report/2057/", "country": {"iso": "mx"}, "region": {"_id": 19}, "lon": -97.0486, "hasNetcam": false, "lat": 15.8299, "_id": 2057, "description": ""}, {"name": "La Saladita", "url": "/La-Saladita-Surf-Report/838/", "country": {"iso": "mx"}, "region": {"_id": 19}, "lon": -101.774, "hasNetcam": false, "lat": 17.8359, "_id": 838, "description": ""}, {"name": "La Ventosa", "url": "/La-Ventosa-Surf-Report/2072/", "country": {"iso": "mx"}, "region": {"_id": 19}, "lon": -95.1482, "hasNetcam": false, "lat": 16.1865, "_id": 2072, "description": ""}, {"name": "Las Gatas", "url": "/Las-Gatas-Surf-Report/337/", "country": {"iso": "mx"}, "region": {"_id": 19}, "lon": -101.554, "hasNetcam": false, "lat": 17.6221, "_id": 337, "description": ""}, {"name": "Las Islitas", "url": "/Las-Islitas-Surf-Report/331/", "country": {"iso": "mx"}, "region": {"_id": 19}, "lon": -105.247, "hasNetcam": false, "lat": 21.5152, "_id": 331, "description": ""}, {"name": "Manzanillo  Bay", "url": "/Manzanillo-Bay-Surf-Report/1059/", "country": {"iso": "mx"}, "region": {"_id": 19}, "lon": -101.748, "hasNetcam": false, "lat": 17.7944, "_id": 1059, "description": "Covering the bay and local points"}, {"name": "Ostiones", "url": "/Ostiones-Surf-Report/2058/", "country": {"iso": "mx"}, "region": {"_id": 19}, "lon": -105.43, "hasNetcam": false, "lat": 20.8822, "_id": 2058, "description": ""}, {"name": "Pascuales", "url": "/Pascuales-Surf-Report/333/", "country": {"iso": "mx"}, "region": {"_id": 19}, "lon": -103.964, "hasNetcam": false, "lat": 18.8561, "_id": 333, "description": ""}, {"name": "Petacalco", "url": "/Petacalco-Surf-Report/335/", "country": {"iso": "mx"}, "region": {"_id": 19}, "lon": -102.101, "hasNetcam": false, "lat": 17.9803, "_id": 335, "description": ""}, {"name": "Playa Boca Chica", "url": "/Playa-Boca-Chica-Surf-Report/338/", "country": {"iso": "mx"}, "region": {"_id": 19}, "lon": -100.65, "hasNetcam": false, "lat": 17.1309, "_id": 338, "description": ""}, {"name": "Playa Escondida", "url": "/Playa-Escondida-Surf-Report/858/", "country": {"iso": "mx"}, "region": {"_id": 19}, "lon": -106.4919, "hasNetcam": false, "lat": 23.3084, "_id": 858, "description": "a.k.a \"Playa Bruja\" best wind direction from E or SE. popular with tourists during the holidays, in particular, but good surf year-round."}, {"name": "Playa Linda", "url": "/Playa-Linda-Surf-Report/2061/", "country": {"iso": "mx"}, "region": {"_id": 19}, "lon": -101.649, "hasNetcam": false, "lat": 17.695, "_id": 2061, "description": ""}, {"name": "Puerto Escondido", "url": "/Puerto-Escondido-Surf-Report/340/", "country": {"iso": "mx"}, "region": {"_id": 19}, "lon": -97.0531, "hasNetcam": false, "lat": 15.8431, "_id": 340, "description": "Puerto Escondido or Mexpipe is a steep barrelling wave over shifting sandbars. Not for the faint of heart or weak of will.  "}, {"name": "Punta Chivo", "url": "/Punta-Chivo-Surf-Report/2071/", "country": {"iso": "mx"}, "region": {"_id": 19}, "lon": -95.2745, "hasNetcam": false, "lat": 16.1078, "_id": 2071, "description": ""}, {"name": "Punta Conejo ", "url": "/Punta-Conejo-Surf-Report/1087/", "country": {"iso": "mx"}, "region": {"_id": 19}, "lon": -95.2465, "hasNetcam": false, "lat": 16.1355, "_id": 1087, "description": "Indicator for region"}, {"name": "Punta Sayulita", "url": "/Punta-Sayulita-Surf-Report/332/", "country": {"iso": "mx"}, "region": {"_id": 19}, "lon": -105.441, "hasNetcam": false, "lat": 20.8722, "_id": 332, "description": ""}, {"name": "Rio Nexpa", "url": "/Rio-Nexpa-Surf-Report/334/", "country": {"iso": "mx"}, "region": {"_id": 19}, "lon": -102.791, "hasNetcam": false, "lat": 18.0827, "_id": 334, "description": ""}, {"name": "San Augustin", "url": "/San-Augustin-Surf-Report/2066/", "country": {"iso": "mx"}, "region": {"_id": 19}, "lon": -96.2347, "hasNetcam": false, "lat": 15.6906, "_id": 2066, "description": ""}, {"name": "San Pancho", "url": "/San-Pancho-Surf-Report/2059/", "country": {"iso": "mx"}, "region": {"_id": 19}, "lon": -105.417, "hasNetcam": false, "lat": 20.9011, "_id": 2059, "description": ""}, {"name": "Santa Cruz - Nayarit", "url": "/Santa-Cruz-Nayarit-Surf-Report/2064/", "country": {"iso": "mx"}, "region": {"_id": 19}, "lon": -105.204, "hasNetcam": false, "lat": 21.4365, "_id": 2064, "description": ""}, {"name": "Stoners Point", "url": "/Stoners-Point-Surf-Report/2062/", "country": {"iso": "mx"}, "region": {"_id": 19}, "lon": -105.262, "hasNetcam": false, "lat": 21.5131, "_id": 2062, "description": ""}, {"name": "The Ranch", "url": "/The-Ranch-Surf-Report/336/", "country": {"iso": "mx"}, "region": {"_id": 19}, "lon": -101.867, "hasNetcam": false, "lat": 17.9092, "_id": 336, "description": ""}, {"name": "Troncones", "url": "/Troncones-Surf-Report/2065/", "country": {"iso": "mx"}, "region": {"_id": 19}, "lon": -101.727, "hasNetcam": false, "lat": 17.78, "_id": 2065, "description": ""}]