[{"name": "Ambohitralanana", "url": "/Ambohitralanana-Surf-Report/730/", "country": {"iso": "mg"}, "region": {"_id": 57}, "lon": 50.397, "hasNetcam": false, "lat": -15.6125, "_id": 730, "description": "For the coast south of Ambohitralanana"}, {"name": "Antsiranana", "url": "/Antsiranana-Surf-Report/729/", "country": {"iso": "mg"}, "region": {"_id": 57}, "lon": 49.3108, "hasNetcam": false, "lat": -12.0031, "_id": 729, "description": "Covering the eastern coast of the cape around the Antsiranana"}, {"name": "Baie de Galion", "url": "/Baie-de-Galion-Surf-Report/2754/", "country": {"iso": "mg"}, "region": {"_id": 57}, "lon": 46.9942, "hasNetcam": false, "lat": -25.0197, "_id": 2754, "description": ""}, {"name": "Baie des Singes", "url": "/Baie-des-Singes-Surf-Report/2755/", "country": {"iso": "mg"}, "region": {"_id": 57}, "lon": 46.986, "hasNetcam": false, "lat": -25.0356, "_id": 2755, "description": ""}, {"name": "Barra Beach", "url": "/Barra-Beach-Surf-Report/577/", "country": {"iso": "mz"}, "region": {"_id": 57}, "lon": 35.5122, "hasNetcam": false, "lat": -23.7862, "_id": 577, "description": "This spot cover all the breaks around the Inhambane Peninsula. Note that Barra Beach faces North rather than East, so our offshore winds will actually be cross shore there."}, {"name": "Chefs", "url": "/Chefs-Surf-Report/2757/", "country": {"iso": "mg"}, "region": {"_id": 57}, "lon": 43.6296, "hasNetcam": false, "lat": -23.7499, "_id": 2757, "description": ""}, {"name": "Flame Bowls", "url": "/Flame-Bowls-Surf-Report/2751/", "country": {"iso": "mg"}, "region": {"_id": 57}, "lon": 43.5904, "hasNetcam": false, "lat": -23.6241, "_id": 2751, "description": ""}, {"name": "Googles", "url": "/Googles-Surf-Report/4536/", "country": {"iso": "mg"}, "region": {"_id": 57}, "lon": 43.611, "hasNetcam": false, "lat": -23.3149, "_id": 4536, "description": ""}, {"name": "Jelly Babies (Anakao)", "url": "/Jelly-Babies-Anakao-Surf-Report/578/", "country": {"iso": "mg"}, "region": {"_id": 57}, "lon": 43.6231, "hasNetcam": false, "lat": -23.6679, "_id": 578, "description": ""}, {"name": "Libanona", "url": "/Libanona-Surf-Report/2753/", "country": {"iso": "mg"}, "region": {"_id": 57}, "lon": 46.9949, "hasNetcam": false, "lat": -25.0383, "_id": 2753, "description": ""}, {"name": "Monseigneur Bay", "url": "/Monseigneur-Bay-Surf-Report/579/", "country": {"iso": "mg"}, "region": {"_id": 57}, "lon": 47, "hasNetcam": false, "lat": -25.0354, "_id": 579, "description": ""}, {"name": "Ponta do Ouro", "url": "/Ponta-do-Ouro-Surf-Report/824/", "country": {"iso": "mz"}, "region": {"_id": 57}, "lon": 32.891, "hasNetcam": false, "lat": -26.8425, "_id": 824, "description": ""}, {"name": "Puss Puss", "url": "/Puss-Puss-Surf-Report/2752/", "country": {"iso": "mg"}, "region": {"_id": 57}, "lon": 43.625, "hasNetcam": false, "lat": -23.7427, "_id": 2752, "description": ""}, {"name": "Resorts", "url": "/Resorts-Surf-Report/2756/", "country": {"iso": "mg"}, "region": {"_id": 57}, "lon": 43.6473, "hasNetcam": false, "lat": -23.6443, "_id": 2756, "description": ""}]