[{"name": "Baterias", "url": "/Baterias-Surf-Report/3299/", "country": {"iso": "pe"}, "region": {"_id": 31}, "lon": -81.2987, "hasNetcam": false, "lat": -4.4579, "_id": 3299, "description": ""}, {"name": "Bermejo", "url": "/Bermejo-Surf-Report/3290/", "country": {"iso": "pe"}, "region": {"_id": 31}, "lon": -77.9073, "hasNetcam": false, "lat": -10.5659, "_id": 3290, "description": ""}, {"name": "Cabo Blanco", "url": "/Cabo-Blanco-Surf-Report/413/", "country": {"iso": "pe"}, "region": {"_id": 31}, "lon": -81.2324, "hasNetcam": false, "lat": -4.25, "_id": 413, "description": "We don\\t have any details about Cabo Blanco at the moment."}, {"name": "Cabo Blanquillo", "url": "/Cabo-Blanquillo-Surf-Report/2196/", "country": {"iso": "pe"}, "region": {"_id": 31}, "lon": -81.2516, "hasNetcam": false, "lat": -4.2712, "_id": 2196, "description": ""}, {"name": "Cabo Verde", "url": "/Cabo-Verde-Surf-Report/3287/", "country": {"iso": "pe"}, "region": {"_id": 31}, "lon": -80.639, "hasNetcam": false, "lat": -6.3708, "_id": 3287, "description": ""}, {"name": "Carquin", "url": "/Carquin-Surf-Report/3295/", "country": {"iso": "pe"}, "region": {"_id": 31}, "lon": -77.6343, "hasNetcam": false, "lat": -11.0916, "_id": 3295, "description": ""}, {"name": "Centinela", "url": "/Centinela-Surf-Report/3293/", "country": {"iso": "pe"}, "region": {"_id": 31}, "lon": -77.6398, "hasNetcam": false, "lat": -11.0681, "_id": 3293, "description": ""}, {"name": "Chicama", "url": "/Chicama-Surf-Report/416/", "country": {"iso": "pe"}, "region": {"_id": 31}, "lon": -79.4528, "hasNetcam": false, "lat": -7.7049, "_id": 416, "description": ""}, {"name": "Col\u00c3\u00a1n", "url": "/ColA%26iexcl%3Bn-Surf-Report/3288/", "country": {"iso": "pe"}, "region": {"_id": 31}, "lon": -81.0675, "hasNetcam": false, "lat": -5.0159, "_id": 3288, "description": ""}, {"name": "Conchitas", "url": "/Conchitas-Surf-Report/3294/", "country": {"iso": "pe"}, "region": {"_id": 31}, "lon": -77.1709, "hasNetcam": false, "lat": -11.743, "_id": 3294, "description": ""}, {"name": "El Hueco", "url": "/El-Hueco-Surf-Report/3298/", "country": {"iso": "pe"}, "region": {"_id": 31}, "lon": -81.2911, "hasNetcam": false, "lat": -4.4521, "_id": 3298, "description": ""}, {"name": "El Nuro", "url": "/El-Nuro-Surf-Report/2197/", "country": {"iso": "pe"}, "region": {"_id": 31}, "lon": -81.1858, "hasNetcam": false, "lat": -4.2179, "_id": 2197, "description": "We don\\t have any details about El Nuro at the moment."}, {"name": "La Islilla (Piura)", "url": "/La-Islilla-Piura-Surf-Report/494/", "country": {"iso": "pe"}, "region": {"_id": 31}, "lon": -81.1945, "hasNetcam": false, "lat": -5.2078, "_id": 494, "description": ""}, {"name": "Lobitos", "url": "/Lobitos-Surf-Report/926/", "country": {"iso": "pe"}, "region": {"_id": 31}, "lon": -81.2871, "hasNetcam": false, "lat": -4.4505, "_id": 926, "description": "A barreling left breaking over rock and sand"}, {"name": "Los Organos", "url": "/Los-Organos-Surf-Report/1173/", "country": {"iso": "pe"}, "region": {"_id": 31}, "lon": -81.1457, "hasNetcam": false, "lat": -4.1779, "_id": 1173, "description": "Breaks left, best on north swell. It faces north north-west, so the dominant southerly wind is slightly offshore.  "}, {"name": "M\u00e1ncora", "url": "/Mancora-Surf-Report/412/", "country": {"iso": "pe"}, "region": {"_id": 31}, "lon": -81.0591, "hasNetcam": false, "lat": -4.1047, "_id": 412, "description": "We don\\t have any details about M\u00e1ncora at the moment."}, {"name": "Negritos", "url": "/Negritos-Surf-Report/414/", "country": {"iso": "pe"}, "region": {"_id": 31}, "lon": -81.3257, "hasNetcam": false, "lat": -4.6658, "_id": 414, "description": ""}, {"name": "Nonura", "url": "/Nonura-Surf-Report/495/", "country": {"iso": "pe"}, "region": {"_id": 31}, "lon": -81.1107, "hasNetcam": false, "lat": -5.8403, "_id": 495, "description": "Also covers Punta Tur"}, {"name": "Pacasmayo", "url": "/Pacasmayo-Surf-Report/3289/", "country": {"iso": "pe"}, "region": {"_id": 31}, "lon": -79.5904, "hasNetcam": false, "lat": -7.4127, "_id": 3289, "description": ""}, {"name": "Paraiso", "url": "/Paraiso-Surf-Report/3291/", "country": {"iso": "pe"}, "region": {"_id": 31}, "lon": -77.6296, "hasNetcam": false, "lat": -11.2116, "_id": 3291, "description": ""}, {"name": "Pasamayo", "url": "/Pasamayo-Surf-Report/3292/", "country": {"iso": "pe"}, "region": {"_id": 31}, "lon": -77.1951, "hasNetcam": false, "lat": -11.7018, "_id": 3292, "description": ""}, {"name": "Pimentel", "url": "/Pimentel-Surf-Report/3297/", "country": {"iso": "pe"}, "region": {"_id": 31}, "lon": -79.9402, "hasNetcam": false, "lat": -6.8367, "_id": 3297, "description": ""}, {"name": "Piscina", "url": "/Piscina-Surf-Report/3296/", "country": {"iso": "pe"}, "region": {"_id": 31}, "lon": -81.2762, "hasNetcam": false, "lat": -4.4458, "_id": 3296, "description": ""}, {"name": "Puemape", "url": "/Puemape-Surf-Report/3286/", "country": {"iso": "pe"}, "region": {"_id": 31}, "lon": -79.5416, "hasNetcam": false, "lat": -7.5189, "_id": 3286, "description": ""}, {"name": "Puerto Eten", "url": "/Puerto-Eten-Surf-Report/415/", "country": {"iso": "pe"}, "region": {"_id": 31}, "lon": -79.8781, "hasNetcam": false, "lat": -6.9287, "_id": 415, "description": ""}, {"name": "Puerto Morin", "url": "/Puerto-Morin-Surf-Report/1172/", "country": {"iso": "pe"}, "region": {"_id": 31}, "lon": -78.9162, "hasNetcam": false, "lat": -8.4295, "_id": 1172, "description": "Windy beautiful bay with left on Cerro Negro side."}, {"name": "Puerto Salaverry", "url": "/Puerto-Salaverry-Surf-Report/3076/", "country": {"iso": "pe"}, "region": {"_id": 31}, "lon": -78.9847, "hasNetcam": false, "lat": -8.2162, "_id": 3076, "description": "bodyboard and kitesurf point"}, {"name": "Punta Aguja", "url": "/Punta-Aguja-Surf-Report/2204/", "country": {"iso": "pe"}, "region": {"_id": 31}, "lon": -81.1001, "hasNetcam": false, "lat": -5.8356, "_id": 2204, "description": ""}, {"name": "Punta Arena (Piura)", "url": "/Punta-Arena-Piura-Surf-Report/2202/", "country": {"iso": "pe"}, "region": {"_id": 31}, "lon": -81.2977, "hasNetcam": false, "lat": -4.62, "_id": 2202, "description": ""}, {"name": "Punta Ballenas", "url": "/Punta-Ballenas-Surf-Report/2201/", "country": {"iso": "pe"}, "region": {"_id": 31}, "lon": -81.0632, "hasNetcam": false, "lat": -4.1067, "_id": 2201, "description": "We don\\t have any details about Punta Ballenas at the moment."}, {"name": "Punta Huanchaco", "url": "/Punta-Huanchaco-Surf-Report/417/", "country": {"iso": "pe"}, "region": {"_id": 31}, "lon": -79.1252, "hasNetcam": false, "lat": -8.081, "_id": 417, "description": ""}, {"name": "Punta Lobo", "url": "/Punta-Lobo-Surf-Report/2203/", "country": {"iso": "pe"}, "region": {"_id": 31}, "lon": -81.2924, "hasNetcam": false, "lat": -4.5911, "_id": 2203, "description": ""}, {"name": "Punta Negra (Piura)", "url": "/Punta-Negra-Piura-Surf-Report/2200/", "country": {"iso": "pe"}, "region": {"_id": 31}, "lon": -81.1702, "hasNetcam": false, "lat": -5.0944, "_id": 2200, "description": ""}, {"name": "Punta Panico", "url": "/Punta-Panico-Surf-Report/2195/", "country": {"iso": "pe"}, "region": {"_id": 31}, "lon": -81.2377, "hasNetcam": false, "lat": -4.2503, "_id": 2195, "description": "We don\\t have any details about Punta Panico at the moment."}, {"name": "Punta Prieta", "url": "/Punta-Prieta-Surf-Report/2206/", "country": {"iso": "pe"}, "region": {"_id": 31}, "lon": -79.3113, "hasNetcam": false, "lat": -7.9217, "_id": 2206, "description": ""}, {"name": "Punta Restin", "url": "/Punta-Restin-Surf-Report/2198/", "country": {"iso": "pe"}, "region": {"_id": 31}, "lon": -81.2622, "hasNetcam": false, "lat": -4.308, "_id": 2198, "description": ""}, {"name": "Punta Tur", "url": "/Punta-Tur-Surf-Report/2205/", "country": {"iso": "pe"}, "region": {"_id": 31}, "lon": -81.1505, "hasNetcam": false, "lat": -5.9732, "_id": 2205, "description": ""}, {"name": "Reventaz\u00c3\u00b3n", "url": "/ReventazA%26sup3%3Bn-Surf-Report/3285/", "country": {"iso": "pe"}, "region": {"_id": 31}, "lon": -81.0061, "hasNetcam": false, "lat": -6.1474, "_id": 3285, "description": ""}, {"name": "Salaverry Harbour", "url": "/Salaverry-Harbour-Surf-Report/2993/", "country": {"iso": "pe"}, "region": {"_id": 31}, "lon": -78.9864, "hasNetcam": false, "lat": -8.2175, "_id": 2993, "description": ""}, {"name": "Yacila", "url": "/Yacila-Surf-Report/2199/", "country": {"iso": "pe"}, "region": {"_id": 31}, "lon": -81.1696, "hasNetcam": false, "lat": -5.1299, "_id": 2199, "description": ""}]