[{"name": "Airport Reef - Phuket", "url": "/Airport-Reef-Phuket-Surf-Report/2373/", "country": {"iso": "th"}, "region": {"_id": 71}, "lon": 98.2885, "hasNetcam": false, "lat": 8.0894, "_id": 2373, "description": ""}, {"name": "Bai Dai", "url": "/Bai-Dai-Surf-Report/4513/", "country": {"iso": "vn"}, "region": {"_id": 71}, "lon": 109.1971, "hasNetcam": false, "lat": 12.0977, "_id": 4513, "description": ""}, {"name": "Baluk Beach", "url": "/Baluk-Beach-Surf-Report/3480/", "country": {"iso": "my"}, "region": {"_id": 71}, "lon": 103.376, "hasNetcam": false, "lat": 3.9296, "_id": 3480, "description": ""}, {"name": "Bang Tao", "url": "/Bang-Tao-Surf-Report/2375/", "country": {"iso": "th"}, "region": {"_id": 71}, "lon": 98.2875, "hasNetcam": false, "lat": 7.9879, "_id": 2375, "description": ""}, {"name": "Batu Buruk, KT", "url": "/Batu-Buruk-KT-Surf-Report/4111/", "country": {"iso": "my"}, "region": {"_id": 71}, "lon": 103.156, "hasNetcam": false, "lat": 5.3231, "_id": 4111, "description": "Most beautiful white sandy beach on the mainland of Malaysia.  Beach break.  Season from end Oct to end March, sometimes as late as end April.  Conveniently located 2 minutes from the town center.  Free parking, abundant shops, very warm atmosphere, very friendly local surfers."}, {"name": "Binh An", "url": "/Binh-An-Surf-Report/3473/", "country": {"iso": "vn"}, "region": {"_id": 71}, "lon": 107.837, "hasNetcam": false, "lat": 16.4241, "_id": 3473, "description": ""}, {"name": "Central Burma", "url": "/Central-Burma-Surf-Report/805/", "country": {"iso": "mm"}, "region": {"_id": 71}, "lon": 94.2263, "hasNetcam": false, "lat": 15.9881, "_id": 805, "description": "Weve no idea if theres any accessible surf here but there is plenty of potential!"}, {"name": "Chaungtha", "url": "/Chaungtha-Surf-Report/3491/", "country": {"iso": "mm"}, "region": {"_id": 71}, "lon": 94.4463, "hasNetcam": false, "lat": 16.9664, "_id": 3491, "description": ""}, {"name": "Chempedak Bay", "url": "/Chempedak-Bay-Surf-Report/4113/", "country": {"iso": "my"}, "region": {"_id": 71}, "lon": 103.373, "hasNetcam": false, "lat": 3.8098, "_id": 4113, "description": " "}, {"name": "Chendor Beach", "url": "/Chendor-Beach-Surf-Report/2509/", "country": {"iso": "my"}, "region": {"_id": 71}, "lon": 103.428, "hasNetcam": false, "lat": 4.1747, "_id": 2509, "description": ""}, {"name": "China Beach", "url": "/China-Beach-Surf-Report/3470/", "country": {"iso": "vn"}, "region": {"_id": 71}, "lon": 108.315, "hasNetcam": false, "lat": 15.9386, "_id": 3470, "description": ""}, {"name": "Club Med - Malaysia", "url": "/Club-Med-Malaysia-Surf-Report/2508/", "country": {"iso": "my"}, "region": {"_id": 71}, "lon": 103.409, "hasNetcam": false, "lat": 4.1279, "_id": 2508, "description": ""}, {"name": "Cue Dai Beach", "url": "/Cue-Dai-Beach-Surf-Report/3471/", "country": {"iso": "vn"}, "region": {"_id": 71}, "lon": 108.385, "hasNetcam": false, "lat": 15.8883, "_id": 3471, "description": ""}, {"name": "Gottaung Beach", "url": "/Gottaung-Beach-Surf-Report/3492/", "country": {"iso": "mm"}, "region": {"_id": 71}, "lon": 94.3253, "hasNetcam": false, "lat": 18.4173, "_id": 3492, "description": ""}, {"name": "Gwa", "url": "/Gwa-Surf-Report/3924/", "country": {"iso": "mm"}, "region": {"_id": 71}, "lon": 94.5805, "hasNetcam": false, "lat": 17.6141, "_id": 3924, "description": ""}, {"name": "Hotels", "url": "/Hotels-Surf-Report/3919/", "country": {"iso": "vn"}, "region": {"_id": 71}, "lon": 108.201, "hasNetcam": false, "lat": 10.9445, "_id": 3919, "description": " "}, {"name": "Kalim", "url": "/Kalim-Surf-Report/2379/", "country": {"iso": "th"}, "region": {"_id": 71}, "lon": 98.2921, "hasNetcam": false, "lat": 7.9143, "_id": 2379, "description": ""}, {"name": "Kamala Beach", "url": "/Kamala-Beach-Surf-Report/2378/", "country": {"iso": "th"}, "region": {"_id": 71}, "lon": 98.2815, "hasNetcam": false, "lat": 7.9527, "_id": 2378, "description": ""}, {"name": "Kanthaya", "url": "/Kanthaya-Surf-Report/3490/", "country": {"iso": "mm"}, "region": {"_id": 71}, "lon": 94.4726, "hasNetcam": false, "lat": 18.0111, "_id": 3490, "description": ""}, {"name": "Karon Beach", "url": "/Karon-Beach-Surf-Report/3474/", "country": {"iso": "th"}, "region": {"_id": 71}, "lon": 98.2919, "hasNetcam": false, "lat": 7.8484, "_id": 3474, "description": ""}, {"name": "Kata Beach", "url": "/Kata-Beach-Surf-Report/3475/", "country": {"iso": "th"}, "region": {"_id": 71}, "lon": 98.2967, "hasNetcam": false, "lat": 7.8208, "_id": 3475, "description": ""}, {"name": "Kata Noi Beach", "url": "/Kata-Noi-Beach-Surf-Report/3476/", "country": {"iso": "th"}, "region": {"_id": 71}, "lon": 98.297, "hasNetcam": false, "lat": 7.8093, "_id": 3476, "description": ""}, {"name": "Kertih Resort", "url": "/Kertih-Resort-Surf-Report/3486/", "country": {"iso": "my"}, "region": {"_id": 71}, "lon": 103.453, "hasNetcam": false, "lat": 4.5132, "_id": 3486, "description": ""}, {"name": "Khao Lak", "url": "/Khao-Lak-Surf-Report/725/", "country": {"iso": "th"}, "region": {"_id": 71}, "lon": 98.2442, "hasNetcam": false, "lat": 8.6618, "_id": 725, "description": ""}, {"name": "Kijal", "url": "/Kijal-Surf-Report/3482/", "country": {"iso": "my"}, "region": {"_id": 71}, "lon": 103.491, "hasNetcam": false, "lat": 4.3309, "_id": 3482, "description": ""}, {"name": "Ko Samui", "url": "/Ko-Samui-Surf-Report/832/", "country": {"iso": "th"}, "region": {"_id": 71}, "lon": 100.055, "hasNetcam": false, "lat": 9.5114, "_id": 832, "description": ""}, {"name": "Koh Phayam", "url": "/Koh-Phayam-Surf-Report/3798/", "country": {"iso": "th"}, "region": {"_id": 71}, "lon": 98.3899, "hasNetcam": false, "lat": 9.7258, "_id": 3798, "description": "Beach break, left and right. Works best on a south west swell, from low tide."}, {"name": "Kota Belud", "url": "/Kota-Belud-Surf-Report/3804/", "country": {"iso": "my"}, "region": {"_id": 71}, "lon": 116.429, "hasNetcam": false, "lat": 6.4409, "_id": 3804, "description": "Long stretch of beach that rarely gets crowded. Some areas of the beach are privately owned."}, {"name": "Kuala Rompin", "url": "/Kuala-Rompin-Surf-Report/4114/", "country": {"iso": "my"}, "region": {"_id": 71}, "lon": 103.5, "hasNetcam": false, "lat": 2.8047, "_id": 4114, "description": " "}, {"name": "Lang Co", "url": "/Lang-Co-Surf-Report/3472/", "country": {"iso": "vn"}, "region": {"_id": 71}, "lon": 108.082, "hasNetcam": false, "lat": 16.2441, "_id": 3472, "description": ""}, {"name": "Marang", "url": "/Marang-Surf-Report/3488/", "country": {"iso": "my"}, "region": {"_id": 71}, "lon": 103.212, "hasNetcam": false, "lat": 5.2114, "_id": 3488, "description": ""}, {"name": "My Khe", "url": "/My-Khe-Surf-Report/3469/", "country": {"iso": "vn"}, "region": {"_id": 71}, "lon": 108.249, "hasNetcam": false, "lat": 16.0576, "_id": 3469, "description": ""}, {"name": "Nai Harn Beach", "url": "/Nai-Harn-Beach-Surf-Report/3477/", "country": {"iso": "th"}, "region": {"_id": 71}, "lon": 98.3014, "hasNetcam": false, "lat": 7.7774, "_id": 3477, "description": ""}, {"name": "Nai Thon", "url": "/Nai-Thon-Surf-Report/2374/", "country": {"iso": "th"}, "region": {"_id": 71}, "lon": 98.2765, "hasNetcam": false, "lat": 8.0591, "_id": 2374, "description": ""}, {"name": "Nam O Point", "url": "/Nam-O-Point-Surf-Report/3468/", "country": {"iso": "vn"}, "region": {"_id": 71}, "lon": 108.134, "hasNetcam": false, "lat": 16.1164, "_id": 3468, "description": ""}, {"name": "Nexus Beach", "url": "/Nexus-Beach-Surf-Report/3805/", "country": {"iso": "my"}, "region": {"_id": 71}, "lon": 116.108, "hasNetcam": false, "lat": 6.1168, "_id": 3805, "description": "Long stretch of beach, curved allowing it to pick up a wide range of swell angles. The beach is located directly behind the Nexus restort. The forecast covers the main part of the beach."}, {"name": "Ngwe Saung", "url": "/Ngwe-Saung-Surf-Report/3923/", "country": {"iso": "mm"}, "region": {"_id": 71}, "lon": 94.3809, "hasNetcam": false, "lat": 16.8652, "_id": 3923, "description": ""}, {"name": "Nha Trang", "url": "/Nha-Trang-Surf-Report/4512/", "country": {"iso": "vn"}, "region": {"_id": 71}, "lon": 109.2032, "hasNetcam": false, "lat": 12.2785, "_id": 4512, "description": ""}, {"name": "Non Nuoc", "url": "/Non-Nuoc-Surf-Report/3467/", "country": {"iso": "vn"}, "region": {"_id": 71}, "lon": 108.27, "hasNetcam": false, "lat": 16.0073, "_id": 3467, "description": ""}, {"name": "Northern Burma", "url": "/Northern-Burma-Surf-Report/803/", "country": {"iso": "mm"}, "region": {"_id": 71}, "lon": 92.6216, "hasNetcam": false, "lat": 20.4511, "_id": 803, "description": "Weve no idea if theres any accessible surf here, but the potential is huge!"}, {"name": "Northern Kudat", "url": "/Northern-Kudat-Surf-Report/3807/", "country": {"iso": "my"}, "region": {"_id": 71}, "lon": 116.743, "hasNetcam": false, "lat": 7.0225, "_id": 3807, "description": "Kudat is a town in Sabah on the northern tip of Borneo island. This spot is located at the very tip of Borneo island north of Kudat. The beach faces north west. Due to it\\\\\\s remote location it\\\\\\s rarely crowded."}, {"name": "Pakar", "url": "/Pakar-Surf-Report/4115/", "country": {"iso": "my"}, "region": {"_id": 71}, "lon": 103.442, "hasNetcam": false, "lat": 4.6315, "_id": 4115, "description": " "}, {"name": "Pandan Beach", "url": "/Pandan-Beach-Surf-Report/4659/", "country": {"iso": "my"}, "region": {"_id": 71}, "lon": 109.8672, "hasNetcam": false, "lat": 1.7653, "_id": 4659, "description": ""}, {"name": "Pansea Beach", "url": "/Pansea-Beach-Surf-Report/2376/", "country": {"iso": "th"}, "region": {"_id": 71}, "lon": 98.2761, "hasNetcam": false, "lat": 7.9825, "_id": 2376, "description": ""}, {"name": "Pantai Juara", "url": "/Pantai-Juara-Surf-Report/3489/", "country": {"iso": "my"}, "region": {"_id": 71}, "lon": 104.204, "hasNetcam": false, "lat": 2.79, "_id": 3489, "description": ""}, {"name": "Pantai Kemasik", "url": "/Pantai-Kemasik-Surf-Report/3484/", "country": {"iso": "my"}, "region": {"_id": 71}, "lon": 103.457, "hasNetcam": false, "lat": 4.4162, "_id": 3484, "description": ""}, {"name": "Patong", "url": "/Patong-Surf-Report/2380/", "country": {"iso": "th"}, "region": {"_id": 71}, "lon": 98.2944, "hasNetcam": false, "lat": 7.896, "_id": 2380, "description": ""}, {"name": "Peninsula Left", "url": "/Peninsula-Left-Surf-Report/3493/", "country": {"iso": "mm"}, "region": {"_id": 71}, "lon": 94.4112, "hasNetcam": false, "lat": 18.202, "_id": 3493, "description": ""}, {"name": "Phuket", "url": "/Phuket-Surf-Report/649/", "country": {"iso": "th"}, "region": {"_id": 71}, "lon": 98.28, "hasNetcam": false, "lat": 8.01, "_id": 649, "description": ""}, {"name": "Rayong Mae Ramphung", "url": "/Rayong-Mae-Ramphung-Surf-Report/1282/", "country": {"iso": "th"}, "region": {"_id": 71}, "lon": 101.408, "hasNetcam": false, "lat": 12.5934, "_id": 1282, "description": "Beachbreak "}, {"name": "Relax Beach", "url": "/Relax-Beach-Surf-Report/2381/", "country": {"iso": "th"}, "region": {"_id": 71}, "lon": 98.2822, "hasNetcam": false, "lat": 7.865, "_id": 2381, "description": ""}, {"name": "Shabandar Beach", "url": "/Shabandar-Beach-Surf-Report/4289/", "country": {"iso": "my"}, "region": {"_id": 71}, "lon": 116.1669, "hasNetcam": false, "lat": 6.182, "_id": 4289, "description": ""}, {"name": "Shabandar Forest Park", "url": "/Shabandar-Forest-Park-Surf-Report/3808/", "country": {"iso": "my"}, "region": {"_id": 71}, "lon": 114.923, "hasNetcam": false, "lat": 4.9969, "_id": 3808, "description": "Main stretch of beaches just behind Berakas Forest Reserve. The beach is split into multiple coves by man made bolder groynes."}, {"name": "Similan Islands", "url": "/Similan-Islands-Surf-Report/652/", "country": {"iso": "th"}, "region": {"_id": 71}, "lon": 97.64, "hasNetcam": false, "lat": 8.6, "_id": 652, "description": ""}, {"name": "South Myanmar", "url": "/South-Myanmar-Surf-Report/3921/", "country": {"iso": "mm"}, "region": {"_id": 71}, "lon": 98.0916, "hasNetcam": false, "lat": 14.1376, "_id": 3921, "description": ""}, {"name": "Southern Burma", "url": "/Southern-Burma-Surf-Report/804/", "country": {"iso": "mm"}, "region": {"_id": 71}, "lon": 98.0901, "hasNetcam": false, "lat": 14.1428, "_id": 804, "description": "Weve no idea if there is any accessible surf here, but theres bags of potential..."}, {"name": "Star Jetty Cruise", "url": "/Star-Jetty-Cruise-Surf-Report/3483/", "country": {"iso": "my"}, "region": {"_id": 71}, "lon": 103.463, "hasNetcam": false, "lat": 4.3796, "_id": 3483, "description": ""}, {"name": "Strawberry Resort", "url": "/Strawberry-Resort-Surf-Report/3481/", "country": {"iso": "my"}, "region": {"_id": 71}, "lon": 103.491, "hasNetcam": false, "lat": 4.3087, "_id": 3481, "description": ""}, {"name": "Surin Beach", "url": "/Surin-Beach-Surf-Report/2377/", "country": {"iso": "th"}, "region": {"_id": 71}, "lon": 98.2778, "hasNetcam": false, "lat": 7.9769, "_id": 2377, "description": ""}, {"name": "Tanjong Beach", "url": "/Tanjong-Beach-Surf-Report/4691/", "country": {"iso": "my"}, "region": {"_id": 71}, "lon": 113.9669, "hasNetcam": false, "lat": 4.3721, "_id": 4691, "description": ""}, {"name": "Tanjong Jara", "url": "/Tanjong-Jara-Surf-Report/3487/", "country": {"iso": "my"}, "region": {"_id": 71}, "lon": 103.426, "hasNetcam": false, "lat": 4.8127, "_id": 3487, "description": ""}, {"name": "Tanjung Aru Beach", "url": "/Tanjung-Aru-Beach-Surf-Report/3806/", "country": {"iso": "my"}, "region": {"_id": 71}, "lon": 116.046, "hasNetcam": false, "lat": 5.9428, "_id": 3806, "description": "Fairly inconsistent beach break, offering left and rights, located just behind Kota Kinabalu airport."}, {"name": "Tanjung Cherating", "url": "/Tanjung-Cherating-Surf-Report/970/", "country": {"iso": "my"}, "region": {"_id": 71}, "lon": 103.397, "hasNetcam": false, "lat": 4.1238, "_id": 970, "description": "Also known as Hege Hege Point"}, {"name": "Teluk Cempedak", "url": "/Teluk-Cempedak-Surf-Report/3485/", "country": {"iso": "my"}, "region": {"_id": 71}, "lon": 103.373, "hasNetcam": false, "lat": 3.8093, "_id": 3485, "description": ""}, {"name": "Teluk Mengkuang", "url": "/Teluk-Mengkuang-Surf-Report/3478/", "country": {"iso": "my"}, "region": {"_id": 71}, "lon": 103.472, "hasNetcam": false, "lat": 4.265, "_id": 3478, "description": ""}, {"name": "The Quarry", "url": "/The-Quarry-Surf-Report/3479/", "country": {"iso": "my"}, "region": {"_id": 71}, "lon": 103.481, "hasNetcam": false, "lat": 4.2856, "_id": 3479, "description": ""}, {"name": "The Rock - Myanmar", "url": "/The-Rock-Myanmar-Surf-Report/3922/", "country": {"iso": "mm"}, "region": {"_id": 71}, "lon": 93.6751, "hasNetcam": false, "lat": 18.6699, "_id": 3922, "description": ""}, {"name": "Tungku Beach", "url": "/Tungku-Beach-Surf-Report/4112/", "country": {"iso": "my"}, "region": {"_id": 71}, "lon": 114.872, "hasNetcam": false, "lat": 4.9737, "_id": 4112, "description": "Killometer 59"}]