[{"name": "Accra", "url": "/Accra-Surf-Report/580/", "country": {"iso": "gh"}, "region": {"_id": 60}, "lon": -0.21, "hasNetcam": false, "lat": 5.53, "_id": 580, "description": ""}, {"name": "Anecho", "url": "/Anecho-Surf-Report/3027/", "country": {"iso": "gh"}, "region": {"_id": 60}, "lon": 1.6065, "hasNetcam": false, "lat": 6.2286, "_id": 3027, "description": ""}, {"name": "Assini", "url": "/Assini-Surf-Report/584/", "country": {"iso": "ci"}, "region": {"_id": 60}, "lon": -2.89, "hasNetcam": false, "lat": 5.04, "_id": 584, "description": ""}, {"name": "Assinie", "url": "/Assinie-Surf-Report/1241/", "country": {"iso": "ci"}, "region": {"_id": 60}, "lon": -3.2935, "hasNetcam": false, "lat": 5.1258, "_id": 1241, "description": "Best season between December and February. "}, {"name": "Bettys", "url": "/Bettys-Surf-Report/4088/", "country": {"iso": "gh"}, "region": {"_id": 60}, "lon": -1.7784, "hasNetcam": false, "lat": 4.8734, "_id": 4088, "description": "Beach Break, best mid to lowtide"}, {"name": "Bouches du Roi", "url": "/Bouches-du-Roi-Surf-Report/3016/", "country": {"iso": "gh"}, "region": {"_id": 60}, "lon": 1.8323, "hasNetcam": false, "lat": 6.2787, "_id": 3016, "description": ""}, {"name": "Busua Beach", "url": "/Busua-Beach-Surf-Report/581/", "country": {"iso": "gh"}, "region": {"_id": 60}, "lon": -1.9332, "hasNetcam": false, "lat": 4.807, "_id": 581, "description": ""}, {"name": "Cape Three Points", "url": "/Cape-Three-Points-Surf-Report/3006/", "country": {"iso": "gh"}, "region": {"_id": 60}, "lon": -2.084, "hasNetcam": false, "lat": 4.7401, "_id": 3006, "description": ""}, {"name": "Cassava", "url": "/Cassava-Surf-Report/3014/", "country": {"iso": "ci"}, "region": {"_id": 60}, "lon": -11.386, "hasNetcam": false, "lat": 6.7443, "_id": 3014, "description": ""}, {"name": "Cotonou Rivermouth", "url": "/Cotonou-Rivermouth-Surf-Report/3011/", "country": {"iso": "gh"}, "region": {"_id": 60}, "lon": 2.4651, "hasNetcam": false, "lat": 6.354, "_id": 3011, "description": ""}, {"name": "Cotton Trees", "url": "/Cotton-Trees-Surf-Report/3033/", "country": {"iso": "ci"}, "region": {"_id": 60}, "lon": -11.3828, "hasNetcam": false, "lat": 6.7492, "_id": 3033, "description": ""}, {"name": "Dagbego (Dabego)", "url": "/Dagbego-Dabego-Surf-Report/586/", "country": {"iso": "ci"}, "region": {"_id": 60}, "lon": -5.9727, "hasNetcam": false, "lat": 4.9839, "_id": 586, "description": ""}, {"name": "Dixcove", "url": "/Dixcove-Surf-Report/2771/", "country": {"iso": "gh"}, "region": {"_id": 60}, "lon": -1.9443, "hasNetcam": false, "lat": 4.7901, "_id": 2771, "description": ""}, {"name": "Dorothys", "url": "/Dorothys-Surf-Report/3013/", "country": {"iso": "ci"}, "region": {"_id": 60}, "lon": -10.8145, "hasNetcam": false, "lat": 6.3225, "_id": 3013, "description": ""}, {"name": "Elmina", "url": "/Elmina-Surf-Report/583/", "country": {"iso": "gh"}, "region": {"_id": 60}, "lon": -1.3446, "hasNetcam": false, "lat": 5.0853, "_id": 583, "description": ""}, {"name": "Fete", "url": "/Fete-Surf-Report/3001/", "country": {"iso": "gh"}, "region": {"_id": 60}, "lon": -0.4577, "hasNetcam": false, "lat": 5.4229, "_id": 3001, "description": ""}, {"name": "Fort Good Hope", "url": "/Fort-Good-Hope-Surf-Report/3002/", "country": {"iso": "gh"}, "region": {"_id": 60}, "lon": -0.4855, "hasNetcam": false, "lat": 5.3872, "_id": 3002, "description": ""}, {"name": "Fort Sebastian", "url": "/Fort-Sebastian-Surf-Report/3007/", "country": {"iso": "gh"}, "region": {"_id": 60}, "lon": -1.6341, "hasNetcam": false, "lat": 4.9737, "_id": 3007, "description": ""}, {"name": "Grand Drewin", "url": "/Grand-Drewin-Surf-Report/3028/", "country": {"iso": "ci"}, "region": {"_id": 60}, "lon": -6.1466, "hasNetcam": false, "lat": 4.9135, "_id": 3028, "description": ""}, {"name": "Grand-Lahou", "url": "/Grand-Lahou-Surf-Report/585/", "country": {"iso": "ci"}, "region": {"_id": 60}, "lon": -5.0437, "hasNetcam": false, "lat": 5.1239, "_id": 585, "description": ""}, {"name": "Kokrobite", "url": "/Kokrobite-Surf-Report/2999/", "country": {"iso": "gh"}, "region": {"_id": 60}, "lon": -0.3622, "hasNetcam": false, "lat": 5.4948, "_id": 2999, "description": ""}, {"name": "Krake", "url": "/Krake-Surf-Report/3017/", "country": {"iso": "gh"}, "region": {"_id": 60}, "lon": 2.6919, "hasNetcam": false, "lat": 6.3739, "_id": 3017, "description": ""}, {"name": "La Passe (Ivory Coast)", "url": "/La-Passe-Ivory-Coast-Surf-Report/3009/", "country": {"iso": "ci"}, "region": {"_id": 60}, "lon": -3.7053, "hasNetcam": false, "lat": 5.1847, "_id": 3009, "description": ""}, {"name": "Labadi Beach", "url": "/Labadi-Beach-Surf-Report/2770/", "country": {"iso": "gh"}, "region": {"_id": 60}, "lon": -0.1411, "hasNetcam": false, "lat": 5.5597, "_id": 2770, "description": ""}, {"name": "Les Route des Peches", "url": "/Les-Route-des-Peches-Surf-Report/3018/", "country": {"iso": "gh"}, "region": {"_id": 60}, "lon": 2.3565, "hasNetcam": false, "lat": 6.3473, "_id": 3018, "description": ""}, {"name": "Lome-Rivage", "url": "/Lome-Rivage-Surf-Report/3010/", "country": {"iso": "gh"}, "region": {"_id": 60}, "lon": 1.2675, "hasNetcam": false, "lat": 6.1323, "_id": 3010, "description": ""}, {"name": "LPs", "url": "/LPs-Surf-Report/3004/", "country": {"iso": "gh"}, "region": {"_id": 60}, "lon": -2.0432, "hasNetcam": false, "lat": 4.752, "_id": 3004, "description": ""}, {"name": "Mamba Beach", "url": "/Mamba-Beach-Surf-Report/3034/", "country": {"iso": "ci"}, "region": {"_id": 60}, "lon": -10.8157, "hasNetcam": false, "lat": 6.3095, "_id": 3034, "description": ""}, {"name": "Mutrakni Point", "url": "/Mutrakni-Point-Surf-Report/582/", "country": {"iso": "gh"}, "region": {"_id": 60}, "lon": -2.1708, "hasNetcam": false, "lat": 4.8056, "_id": 582, "description": ""}, {"name": "Nyanyanu", "url": "/Nyanyanu-Surf-Report/3000/", "country": {"iso": "gh"}, "region": {"_id": 60}, "lon": -0.4012, "hasNetcam": false, "lat": 5.4679, "_id": 3000, "description": ""}, {"name": "Ouidah", "url": "/Ouidah-Surf-Report/3025/", "country": {"iso": "gh"}, "region": {"_id": 60}, "lon": 2.0895, "hasNetcam": false, "lat": 6.323, "_id": 3025, "description": ""}, {"name": "San Pedro", "url": "/San-Pedro-Surf-Report/588/", "country": {"iso": "ci"}, "region": {"_id": 60}, "lon": -6.6256, "hasNetcam": false, "lat": 4.7251, "_id": 588, "description": ""}, {"name": "Sassandra", "url": "/Sassandra-Surf-Report/587/", "country": {"iso": "ci"}, "region": {"_id": 60}, "lon": -6.0886, "hasNetcam": false, "lat": 4.9408, "_id": 587, "description": ""}, {"name": "Sheraton, Novotel", "url": "/Sheraton-Novotel-Surf-Report/3019/", "country": {"iso": "gh"}, "region": {"_id": 60}, "lon": 2.3998, "hasNetcam": false, "lat": 6.3432, "_id": 3019, "description": ""}, {"name": "St Charles", "url": "/St-Charles-Surf-Report/3015/", "country": {"iso": "gh"}, "region": {"_id": 60}, "lon": -0.616, "hasNetcam": false, "lat": 5.3357, "_id": 3015, "description": ""}, {"name": "Takoradi", "url": "/Takoradi-Surf-Report/3005/", "country": {"iso": "gh"}, "region": {"_id": 60}, "lon": -1.7468, "hasNetcam": false, "lat": 4.8721, "_id": 3005, "description": ""}, {"name": "Tills", "url": "/Tills-Surf-Report/4087/", "country": {"iso": "gh"}, "region": {"_id": 60}, "lon": -0.4667, "hasNetcam": false, "lat": 5.4154, "_id": 4087, "description": "Long Beach with a bay on the left.\\\\r\\\\n "}, {"name": "University", "url": "/University-Surf-Report/3008/", "country": {"iso": "gh"}, "region": {"_id": 60}, "lon": -1.242, "hasNetcam": false, "lat": 5.1024, "_id": 3008, "description": ""}]