[{"name": "Avellana", "url": "/Avellana-Surf-Report/920/", "country": {"iso": "cr"}, "region": {"_id": 29}, "lon": -85.8398, "hasNetcam": false, "lat": 10.225, "_id": 920, "description": ""}, {"name": "Backwash (Golfo Dulce)", "url": "/Backwash-Golfo-Dulce-Surf-Report/2459/", "country": {"iso": "cr"}, "region": {"_id": 29}, "lon": -83.2808, "hasNetcam": false, "lat": 8.3824, "_id": 2459, "description": ""}, {"name": "Barco Quebrado", "url": "/Barco-Quebrado-Surf-Report/2490/", "country": {"iso": "cr"}, "region": {"_id": 29}, "lon": -82.9938, "hasNetcam": false, "lat": 9.9268, "_id": 2490, "description": ""}, {"name": "Bluff", "url": "/Bluff-Surf-Report/2507/", "country": {"iso": "pa"}, "region": {"_id": 29}, "lon": -82.2462, "hasNetcam": false, "lat": 9.4036, "_id": 2507, "description": ""}, {"name": "Boca Barranca", "url": "/Boca-Barranca-Surf-Report/3239/", "country": {"iso": "cr"}, "region": {"_id": 29}, "lon": -84.7408, "hasNetcam": false, "lat": 9.9586, "_id": 3239, "description": ""}, {"name": "Boca Damas", "url": "/Boca-Damas-Surf-Report/3342/", "country": {"iso": "cr"}, "region": {"_id": 29}, "lon": -84.219, "hasNetcam": false, "lat": 9.4538, "_id": 3342, "description": ""}, {"name": "Boca Tusubres", "url": "/Boca-Tusubres-Surf-Report/2493/", "country": {"iso": "cr"}, "region": {"_id": 29}, "lon": -84.5551, "hasNetcam": false, "lat": 9.5347, "_id": 2493, "description": ""}, {"name": "Carate", "url": "/Carate-Surf-Report/2480/", "country": {"iso": "cr"}, "region": {"_id": 29}, "lon": -83.3402, "hasNetcam": false, "lat": 8.3955, "_id": 2480, "description": ""}, {"name": "Careneros", "url": "/Careneros-Surf-Report/913/", "country": {"iso": "pa"}, "region": {"_id": 29}, "lon": -82.2274, "hasNetcam": false, "lat": 9.3567, "_id": 913, "description": ""}, {"name": "Casares", "url": "/Casares-Surf-Report/3242/", "country": {"iso": "ni"}, "region": {"_id": 29}, "lon": -86.3606, "hasNetcam": false, "lat": 11.6467, "_id": 3242, "description": ""}, {"name": "Cedros", "url": "/Cedros-Surf-Report/1169/", "country": {"iso": "cr"}, "region": {"_id": 29}, "lon": -85.0763, "hasNetcam": false, "lat": 9.6297, "_id": 1169, "description": "A slow left only good on a full tide "}, {"name": "Chame Banks", "url": "/Chame-Banks-Surf-Report/4622/", "country": {"iso": "pa"}, "region": {"_id": 29}, "lon": -79.7911, "hasNetcam": false, "lat": 8.5741, "_id": 4622, "description": ""}, {"name": "Coca\u00efne Point", "url": "/Cocaine-Point-Surf-Report/2466/", "country": {"iso": "cr"}, "region": {"_id": 29}, "lon": -83.0664, "hasNetcam": false, "lat": 10.0135, "_id": 2466, "description": ""}, {"name": "Dominicalito", "url": "/Dominicalito-Surf-Report/3347/", "country": {"iso": "cr"}, "region": {"_id": 29}, "lon": -83.842, "hasNetcam": false, "lat": 9.2317, "_id": 3347, "description": ""}, {"name": "Drakes Bay", "url": "/Drakes-Bay-Surf-Report/3357/", "country": {"iso": "cr"}, "region": {"_id": 29}, "lon": -83.6496, "hasNetcam": false, "lat": 8.7194, "_id": 3357, "description": ""}, {"name": "Eclipse", "url": "/Eclipse-Surf-Report/3236/", "country": {"iso": "cr"}, "region": {"_id": 29}, "lon": -82.9519, "hasNetcam": false, "lat": 8.2064, "_id": 3236, "description": ""}, {"name": "El Astillero", "url": "/El-Astillero-Surf-Report/1101/", "country": {"iso": "ni"}, "region": {"_id": 29}, "lon": -86.1766, "hasNetcam": false, "lat": 11.5198, "_id": 1101, "description": "Rivermouth"}, {"name": "El Coco", "url": "/El-Coco-Surf-Report/3240/", "country": {"iso": "ni"}, "region": {"_id": 29}, "lon": -85.8042, "hasNetcam": false, "lat": 11.158, "_id": 3240, "description": ""}, {"name": "El Penon", "url": "/El-Penon-Surf-Report/1102/", "country": {"iso": "ni"}, "region": {"_id": 29}, "lon": -86.1777, "hasNetcam": false, "lat": 11.5219, "_id": 1102, "description": "A left pointbreak"}, {"name": "El Remanso", "url": "/El-Remanso-Surf-Report/2562/", "country": {"iso": "ni"}, "region": {"_id": 29}, "lon": -85.8494, "hasNetcam": false, "lat": 11.2205, "_id": 2562, "description": ""}, {"name": "El Tr\u00e1nsito", "url": "/El-Transito-Surf-Report/1275/", "country": {"iso": "ni"}, "region": {"_id": 29}, "lon": -86.706, "hasNetcam": false, "lat": 12.0485, "_id": 1275, "description": "Quality beachbreak"}, {"name": "El Yanke", "url": "/El-Yanke-Surf-Report/2569/", "country": {"iso": "ni"}, "region": {"_id": 29}, "lon": -85.8183, "hasNetcam": false, "lat": 11.1809, "_id": 2569, "description": ""}, {"name": "Emilys (Morro Negrito)", "url": "/Emilys-Morro-Negrito-Surf-Report/449/", "country": {"iso": "pa"}, "region": {"_id": 29}, "lon": -81.7141, "hasNetcam": false, "lat": 8.0447, "_id": 449, "description": ""}, {"name": "Esmeralda", "url": "/Esmeralda-Surf-Report/2522/", "country": {"iso": "pa"}, "region": {"_id": 29}, "lon": -79.9316, "hasNetcam": false, "lat": 8.4944, "_id": 2522, "description": ""}, {"name": "Esterillos Oeste", "url": "/Esterillos-Oeste-Surf-Report/2494/", "country": {"iso": "cr"}, "region": {"_id": 29}, "lon": -84.4911, "hasNetcam": false, "lat": 9.5268, "_id": 2494, "description": ""}, {"name": "First Beach", "url": "/First-Beach-Surf-Report/2511/", "country": {"iso": "pa"}, "region": {"_id": 29}, "lon": -82.1958, "hasNetcam": false, "lat": 9.3524, "_id": 2511, "description": ""}, {"name": "Gran Pacifica", "url": "/Gran-Pacifica-Surf-Report/4578/", "country": {"iso": "ni"}, "region": {"_id": 29}, "lon": -86.6201, "hasNetcam": false, "lat": 11.9109, "_id": 4578, "description": ""}, {"name": "Hawaiisito", "url": "/Hawaiisito-Surf-Report/2520/", "country": {"iso": "pa"}, "region": {"_id": 29}, "lon": -79.9459, "hasNetcam": false, "lat": 8.4812, "_id": 2520, "description": ""}, {"name": "Hog Hole", "url": "/Hog-Hole-Surf-Report/2458/", "country": {"iso": "cr"}, "region": {"_id": 29}, "lon": -83.2884, "hasNetcam": false, "lat": 8.375, "_id": 2458, "description": ""}, {"name": "Isla Grande", "url": "/Isla-Grande-Surf-Report/4524/", "country": {"iso": "pa"}, "region": {"_id": 29}, "lon": -79.5546, "hasNetcam": false, "lat": 9.6335, "_id": 4524, "description": ""}, {"name": "Isla Uvita", "url": "/Isla-Uvita-Surf-Report/2463/", "country": {"iso": "cr"}, "region": {"_id": 29}, "lon": -83.0092, "hasNetcam": false, "lat": 9.9956, "_id": 2463, "description": ""}, {"name": "La Barqueta", "url": "/La-Barqueta-Surf-Report/647/", "country": {"iso": "pa"}, "region": {"_id": 29}, "lon": -82.5737, "hasNetcam": false, "lat": 8.3001, "_id": 647, "description": "Breaks on all swell directions. It only real down side is that it normally closes out especially when the predicted swell size is 5ft or greater."}, {"name": "La Zurda", "url": "/La-Zurda-Surf-Report/2515/", "country": {"iso": "pa"}, "region": {"_id": 29}, "lon": -79.4848, "hasNetcam": false, "lat": 9.0051, "_id": 2515, "description": ""}, {"name": "Langosta", "url": "/Langosta-Surf-Report/2462/", "country": {"iso": "cr"}, "region": {"_id": 29}, "lon": -85.8502, "hasNetcam": false, "lat": 10.2765, "_id": 2462, "description": ""}, {"name": "Las B\u00f3vedas", "url": "/Las-Bovedas-Surf-Report/2514/", "country": {"iso": "pa"}, "region": {"_id": 29}, "lon": -79.5312, "hasNetcam": false, "lat": 8.9493, "_id": 2514, "description": ""}, {"name": "Little Shoal", "url": "/Little-Shoal-Surf-Report/2477/", "country": {"iso": "cr"}, "region": {"_id": 29}, "lon": -82.7196, "hasNetcam": false, "lat": 9.6469, "_id": 2477, "description": ""}, {"name": "Manzanillo", "url": "/Manzanillo-Surf-Report/464/", "country": {"iso": "ni"}, "region": {"_id": 29}, "lon": -86.04, "hasNetcam": false, "lat": 11.38, "_id": 464, "description": ""}, {"name": "Manzanillo (Lim\u00f3n)", "url": "/Manzanillo-Limon-Surf-Report/2495/", "country": {"iso": "cr"}, "region": {"_id": 29}, "lon": -82.6365, "hasNetcam": false, "lat": 9.6395, "_id": 2495, "description": ""}, {"name": "Manzanillo (Rivas Province)", "url": "/Manzanillo-Rivas-Province-Surf-Report/3256/", "country": {"iso": "ni"}, "region": {"_id": 29}, "lon": -86.0101, "hasNetcam": false, "lat": 11.3656, "_id": 3256, "description": ""}, {"name": "Marbella", "url": "/Marbella-Surf-Report/4546/", "country": {"iso": "cr"}, "region": {"_id": 29}, "lon": -85.7845, "hasNetcam": false, "lat": 10.0896, "_id": 4546, "description": ""}, {"name": "Masachapa", "url": "/Masachapa-Surf-Report/2560/", "country": {"iso": "ni"}, "region": {"_id": 29}, "lon": -86.522, "hasNetcam": false, "lat": 11.7791, "_id": 2560, "description": ""}, {"name": "Mojon Beach", "url": "/Mojon-Beach-Surf-Report/2517/", "country": {"iso": "pa"}, "region": {"_id": 29}, "lon": -79.4677, "hasNetcam": false, "lat": 9.006, "_id": 2517, "description": ""}, {"name": "Montelimar", "url": "/Montelimar-Surf-Report/2561/", "country": {"iso": "ni"}, "region": {"_id": 29}, "lon": -86.5214, "hasNetcam": false, "lat": 11.8022, "_id": 2561, "description": ""}, {"name": "Nestles", "url": "/Nestles-Surf-Report/3263/", "country": {"iso": "pa"}, "region": {"_id": 29}, "lon": -81.8147, "hasNetcam": false, "lat": 8.0803, "_id": 3263, "description": ""}, {"name": "Nosara", "url": "/Nosara-Surf-Report/445/", "country": {"iso": "cr"}, "region": {"_id": 29}, "lon": -85.6838, "hasNetcam": false, "lat": 9.969, "_id": 445, "description": ""}, {"name": "Nuevo Loco", "url": "/Nuevo-Loco-Surf-Report/2516/", "country": {"iso": "pa"}, "region": {"_id": 29}, "lon": -79.4765, "hasNetcam": false, "lat": 9.0071, "_id": 2516, "description": ""}, {"name": "Ollies Point (Potrero Grande)", "url": "/Ollies-Point-Potrero-Grande-Surf-Report/442/", "country": {"iso": "cr"}, "region": {"_id": 29}, "lon": -85.7998, "hasNetcam": false, "lat": 10.8512, "_id": 442, "description": ""}, {"name": "Ostional", "url": "/Ostional-Surf-Report/2455/", "country": {"iso": "cr"}, "region": {"_id": 29}, "lon": -85.7036, "hasNetcam": false, "lat": 9.9927, "_id": 2455, "description": ""}, {"name": "P-Land", "url": "/P-Land-Surf-Report/3262/", "country": {"iso": "pa"}, "region": {"_id": 29}, "lon": -81.8179, "hasNetcam": false, "lat": 8.0814, "_id": 3262, "description": ""}, {"name": "Pan Dulce", "url": "/Pan-Dulce-Surf-Report/447/", "country": {"iso": "cr"}, "region": {"_id": 29}, "lon": -83.2761, "hasNetcam": false, "lat": 8.3879, "_id": 447, "description": ""}, {"name": "Panam\u00e1 La Vieja (Panama City)", "url": "/Panama-La-Vieja-Panama-City-Surf-Report/472/", "country": {"iso": "pa"}, "region": {"_id": 29}, "lon": -79.4833, "hasNetcam": false, "lat": 9.0022, "_id": 472, "description": "All City breaks"}, {"name": "Paunch", "url": "/Paunch-Surf-Report/2506/", "country": {"iso": "pa"}, "region": {"_id": 29}, "lon": -82.2385, "hasNetcam": false, "lat": 9.3738, "_id": 2506, "description": ""}, {"name": "Pavones", "url": "/Pavones-Surf-Report/446/", "country": {"iso": "cr"}, "region": {"_id": 29}, "lon": -83.1402, "hasNetcam": false, "lat": 8.3928, "_id": 446, "description": ""}, {"name": "Playa Ballena", "url": "/Playa-Ballena-Surf-Report/3354/", "country": {"iso": "cr"}, "region": {"_id": 29}, "lon": -83.6958, "hasNetcam": false, "lat": 9.1106, "_id": 3354, "description": ""}, {"name": "Playa Bonita", "url": "/Playa-Bonita-Surf-Report/468/", "country": {"iso": "cr"}, "region": {"_id": 29}, "lon": -83.0617, "hasNetcam": false, "lat": 10.0114, "_id": 468, "description": "Covering all the Puerto Limon breaks"}, {"name": "Playa Brasilito", "url": "/Playa-Brasilito-Surf-Report/4632/", "country": {"iso": "cr"}, "region": {"_id": 29}, "lon": -85.7978, "hasNetcam": false, "lat": 10.4102, "_id": 4632, "description": ""}, {"name": "Playa Caletas", "url": "/Playa-Caletas-Surf-Report/2499/", "country": {"iso": "cr"}, "region": {"_id": 29}, "lon": -85.2599, "hasNetcam": false, "lat": 9.7538, "_id": 2499, "description": ""}, {"name": "Playa Carmen", "url": "/Playa-Carmen-Surf-Report/466/", "country": {"iso": "cr"}, "region": {"_id": 29}, "lon": -85.15, "hasNetcam": false, "lat": 9.6198, "_id": 466, "description": ""}, {"name": "Playa Cocles", "url": "/Playa-Cocles-Surf-Report/2476/", "country": {"iso": "cr"}, "region": {"_id": 29}, "lon": -82.739, "hasNetcam": false, "lat": 9.6557, "_id": 2476, "description": ""}, {"name": "Playa Colorado", "url": "/Playa-Colorado-Surf-Report/940/", "country": {"iso": "ni"}, "region": {"_id": 29}, "lon": -86.0381, "hasNetcam": false, "lat": 11.3962, "_id": 940, "description": ""}, {"name": "Playa Coyote", "url": "/Playa-Coyote-Surf-Report/2500/", "country": {"iso": "cr"}, "region": {"_id": 29}, "lon": -85.2684, "hasNetcam": false, "lat": 9.7751, "_id": 2500, "description": ""}, {"name": "Playa Dominical", "url": "/Playa-Dominical-Surf-Report/3346/", "country": {"iso": "cr"}, "region": {"_id": 29}, "lon": -83.8674, "hasNetcam": false, "lat": 9.2511, "_id": 3346, "description": ""}, {"name": "Playa El Rey", "url": "/Playa-El-Rey-Surf-Report/3356/", "country": {"iso": "cr"}, "region": {"_id": 29}, "lon": -84.1079, "hasNetcam": false, "lat": 9.3732, "_id": 3356, "description": ""}, {"name": "Playa Escondida", "url": "/Playa-Escondida-Surf-Report/2492/", "country": {"iso": "cr"}, "region": {"_id": 29}, "lon": -84.6743, "hasNetcam": false, "lat": 9.6617, "_id": 2492, "description": ""}, {"name": "Playa Flamingo", "url": "/Playa-Flamingo-Surf-Report/4631/", "country": {"iso": "cr"}, "region": {"_id": 29}, "lon": -85.7931, "hasNetcam": false, "lat": 10.4342, "_id": 4631, "description": ""}, {"name": "Playa Grande - Guanacaste", "url": "/Playa-Grande-Guanacaste-Surf-Report/1062/", "country": {"iso": "cr"}, "region": {"_id": 29}, "lon": -85.8416, "hasNetcam": false, "lat": 10.3209, "_id": 1062, "description": ""}, {"name": "Playa Guiones", "url": "/Playa-Guiones-Surf-Report/2456/", "country": {"iso": "cr"}, "region": {"_id": 29}, "lon": -85.6713, "hasNetcam": false, "lat": 9.9415, "_id": 2456, "description": ""}, {"name": "Playa Hermosa", "url": "/Playa-Hermosa-Surf-Report/987/", "country": {"iso": "cr"}, "region": {"_id": 29}, "lon": -84.6046, "hasNetcam": false, "lat": 9.5732, "_id": 987, "description": "A varied beach break with numerous options for all abilities"}, {"name": "Playa Hermosa", "url": "/Playa-Hermosa-Surf-Report/4165/", "country": {"iso": "ni"}, "region": {"_id": 29}, "lon": -85.837, "hasNetcam": false, "lat": 11.203, "_id": 4165, "description": "Playa Hermosa close to El Sucio."}, {"name": "Playa Hermosa", "url": "/Playa-Hermosa-Surf-Report/4614/", "country": {"iso": "ni"}, "region": {"_id": 29}, "lon": -86.7369, "hasNetcam": false, "lat": 12.1093, "_id": 4614, "description": ""}, {"name": "Playa Hermosa - Osa Peninsula", "url": "/Playa-Hermosa-Osa-Peninsula-Surf-Report/3353/", "country": {"iso": "cr"}, "region": {"_id": 29}, "lon": -83.7632, "hasNetcam": false, "lat": 9.1692, "_id": 3353, "description": ""}, {"name": "Playa Jaco", "url": "/Playa-Jaco-Surf-Report/2472/", "country": {"iso": "cr"}, "region": {"_id": 29}, "lon": -84.6327, "hasNetcam": false, "lat": 9.6131, "_id": 2472, "description": ""}, {"name": "Playa Maderas", "url": "/Playa-Maderas-Surf-Report/465/", "country": {"iso": "ni"}, "region": {"_id": 29}, "lon": -85.9099, "hasNetcam": false, "lat": 11.2907, "_id": 465, "description": ""}, {"name": "Playa Malib\u00fa", "url": "/Playa-Malibu-Surf-Report/3259/", "country": {"iso": "pa"}, "region": {"_id": 29}, "lon": -79.8399, "hasNetcam": false, "lat": 8.5566, "_id": 3259, "description": ""}, {"name": "Playa Manzanillo", "url": "/Playa-Manzanillo-Surf-Report/2479/", "country": {"iso": "cr"}, "region": {"_id": 29}, "lon": -85.2118, "hasNetcam": false, "lat": 9.6984, "_id": 2479, "description": ""}, {"name": "Playa Matapalo", "url": "/Playa-Matapalo-Surf-Report/3345/", "country": {"iso": "cr"}, "region": {"_id": 29}, "lon": -83.9611, "hasNetcam": false, "lat": 9.3164, "_id": 3345, "description": ""}, {"name": "Playa Morrillo", "url": "/Playa-Morrillo-Surf-Report/4290/", "country": {"iso": "pa"}, "region": {"_id": 29}, "lon": -80.9539, "hasNetcam": false, "lat": 7.4888, "_id": 4290, "description": "Consistent beach break and site for national surf contests."}, {"name": "Playa Negra - Guanacaste", "url": "/Playa-Negra-Guanacaste-Surf-Report/1131/", "country": {"iso": "cr"}, "region": {"_id": 29}, "lon": -85.8338, "hasNetcam": false, "lat": 10.1944, "_id": 1131, "description": ""}, {"name": "Playa Negra - Limon", "url": "/Playa-Negra-Limon-Surf-Report/2497/", "country": {"iso": "cr"}, "region": {"_id": 29}, "lon": -82.8469, "hasNetcam": false, "lat": 9.7422, "_id": 2497, "description": ""}, {"name": "Playa Pedasi", "url": "/Playa-Pedasi-Surf-Report/3713/", "country": {"iso": "pa"}, "region": {"_id": 29}, "lon": -80.0031, "hasNetcam": false, "lat": 7.53, "_id": 3713, "description": "Mixed beach break peaks."}, {"name": "Playa Reina", "url": "/Playa-Reina-Surf-Report/4458/", "country": {"iso": "pa"}, "region": {"_id": 29}, "lon": -80.9958, "hasNetcam": false, "lat": 7.6208, "_id": 4458, "description": ""}, {"name": "Playa Rosada", "url": "/Playa-Rosada-Surf-Report/2559/", "country": {"iso": "ni"}, "region": {"_id": 29}, "lon": -86.0844, "hasNetcam": false, "lat": 11.4339, "_id": 2559, "description": ""}, {"name": "Playa Santa Teresa", "url": "/Playa-Santa-Teresa-Surf-Report/914/", "country": {"iso": "cr"}, "region": {"_id": 29}, "lon": -85.1834, "hasNetcam": false, "lat": 9.6518, "_id": 914, "description": ""}, {"name": "Playa Santana (Playa Jiquelite)", "url": "/Playa-Santana-Playa-Jiquelite-Surf-Report/1143/", "country": {"iso": "ni"}, "region": {"_id": 29}, "lon": -86.0874, "hasNetcam": false, "lat": 11.4426, "_id": 1143, "description": ""}, {"name": "Playa Serena", "url": "/Playa-Serena-Surf-Report/3258/", "country": {"iso": "pa"}, "region": {"_id": 29}, "lon": -79.8673, "hasNetcam": false, "lat": 8.5488, "_id": 3258, "description": ""}, {"name": "Playa Venao", "url": "/Playa-Venao-Surf-Report/882/", "country": {"iso": "pa"}, "region": {"_id": 29}, "lon": -80.1925, "hasNetcam": false, "lat": 7.4301, "_id": 882, "description": ""}, {"name": "Playitas", "url": "/Playitas-Surf-Report/3355/", "country": {"iso": "cr"}, "region": {"_id": 29}, "lon": -84.1643, "hasNetcam": false, "lat": 9.3964, "_id": 3355, "description": ""}, {"name": "Pochomil", "url": "/Pochomil-Surf-Report/463/", "country": {"iso": "ni"}, "region": {"_id": 29}, "lon": -86.4871, "hasNetcam": false, "lat": 11.7523, "_id": 463, "description": ""}, {"name": "Popoyo", "url": "/Popoyo-Surf-Report/939/", "country": {"iso": "ni"}, "region": {"_id": 29}, "lon": -86.1024, "hasNetcam": false, "lat": 11.4514, "_id": 939, "description": ""}, {"name": "Puerto Armuelles", "url": "/Puerto-Armuelles-Surf-Report/680/", "country": {"iso": "pa"}, "region": {"_id": 29}, "lon": -82.84, "hasNetcam": false, "lat": 8.28, "_id": 680, "description": ""}, {"name": "Puerto Caldera", "url": "/Puerto-Caldera-Surf-Report/3238/", "country": {"iso": "cr"}, "region": {"_id": 29}, "lon": -84.7282, "hasNetcam": false, "lat": 9.9134, "_id": 3238, "description": ""}, {"name": "Puerto Sandino", "url": "/Puerto-Sandino-Surf-Report/879/", "country": {"iso": "ni"}, "region": {"_id": 29}, "lon": -86.7748, "hasNetcam": false, "lat": 12.1969, "_id": 879, "description": ""}, {"name": "Punta Banco", "url": "/Punta-Banco-Surf-Report/2461/", "country": {"iso": "cr"}, "region": {"_id": 29}, "lon": -83.1447, "hasNetcam": false, "lat": 8.3614, "_id": 2461, "description": ""}, {"name": "Punta Barigona", "url": "/Punta-Barigona-Surf-Report/2469/", "country": {"iso": "cr"}, "region": {"_id": 29}, "lon": -85.1469, "hasNetcam": false, "lat": 9.5926, "_id": 2469, "description": ""}, {"name": "Punta Burica", "url": "/Punta-Burica-Surf-Report/3261/", "country": {"iso": "cr"}, "region": {"_id": 29}, "lon": -82.9159, "hasNetcam": false, "lat": 8.0537, "_id": 3261, "description": ""}, {"name": "Punta Dominical", "url": "/Punta-Dominical-Surf-Report/3348/", "country": {"iso": "cr"}, "region": {"_id": 29}, "lon": -83.8429, "hasNetcam": false, "lat": 9.2242, "_id": 3348, "description": ""}, {"name": "Punta Miramar", "url": "/Punta-Miramar-Surf-Report/3264/", "country": {"iso": "ni"}, "region": {"_id": 29}, "lon": -86.7635, "hasNetcam": false, "lat": 12.1661, "_id": 3264, "description": "Left hand Point break over a rock bottom. Fast on the takeoff with some barrel sections. Works on high tide most days. With big swell also works on Low tide. "}, {"name": "Punta Palmar (San Carlos)", "url": "/Punta-Palmar-San-Carlos-Surf-Report/471/", "country": {"iso": "pa"}, "region": {"_id": 29}, "lon": -79.9464, "hasNetcam": false, "lat": 8.4704, "_id": 471, "description": "Covering the coast between San Carlos and Gorgona"}, {"name": "Punta Teta", "url": "/Punta-Teta-Surf-Report/2524/", "country": {"iso": "pa"}, "region": {"_id": 29}, "lon": -79.9161, "hasNetcam": false, "lat": 8.5056, "_id": 2524, "description": ""}, {"name": "Punta Uva", "url": "/Punta-Uva-Surf-Report/2478/", "country": {"iso": "cr"}, "region": {"_id": 29}, "lon": -82.6886, "hasNetcam": false, "lat": 9.6462, "_id": 2478, "description": ""}, {"name": "Punta Uvita", "url": "/Punta-Uvita-Surf-Report/3351/", "country": {"iso": "cr"}, "region": {"_id": 29}, "lon": -83.7577, "hasNetcam": false, "lat": 9.148, "_id": 3351, "description": ""}, {"name": "Quepos Bombie", "url": "/Quepos-Bombie-Surf-Report/3344/", "country": {"iso": "cr"}, "region": {"_id": 29}, "lon": -84.1724, "hasNetcam": false, "lat": 9.421, "_id": 3344, "description": ""}, {"name": "Quepos Jetty", "url": "/Quepos-Jetty-Surf-Report/3343/", "country": {"iso": "cr"}, "region": {"_id": 29}, "lon": -84.1704, "hasNetcam": false, "lat": 9.4253, "_id": 3343, "description": ""}, {"name": "Rinconsito", "url": "/Rinconsito-Surf-Report/2525/", "country": {"iso": "pa"}, "region": {"_id": 29}, "lon": -79.9131, "hasNetcam": false, "lat": 8.5078, "_id": 2525, "description": ""}, {"name": "Rio Claro Rivermouth", "url": "/Rio-Claro-Rivermouth-Surf-Report/3235/", "country": {"iso": "cr"}, "region": {"_id": 29}, "lon": -83.595, "hasNetcam": false, "lat": 8.4638, "_id": 3235, "description": ""}, {"name": "Rio Mar", "url": "/Rio-Mar-Surf-Report/2523/", "country": {"iso": "pa"}, "region": {"_id": 29}, "lon": -80.0054, "hasNetcam": false, "lat": 8.4313, "_id": 2523, "description": ""}, {"name": "Rio Sierpe Rivermouth", "url": "/Rio-Sierpe-Rivermouth-Surf-Report/3352/", "country": {"iso": "cr"}, "region": {"_id": 29}, "lon": -83.6524, "hasNetcam": false, "lat": 8.7841, "_id": 3352, "description": ""}, {"name": "Roca Alta", "url": "/Roca-Alta-Surf-Report/2464/", "country": {"iso": "cr"}, "region": {"_id": 29}, "lon": -83.0411, "hasNetcam": false, "lat": 10.0096, "_id": 2464, "description": ""}, {"name": "Roca Loca", "url": "/Roca-Loca-Surf-Report/467/", "country": {"iso": "cr"}, "region": {"_id": 29}, "lon": -84.6265, "hasNetcam": false, "lat": 9.5895, "_id": 467, "description": "Including Jaco and Playa Escondida"}, {"name": "Rocky Point", "url": "/Rocky-Point-Surf-Report/3257/", "country": {"iso": "pa"}, "region": {"_id": 29}, "lon": -79.8915, "hasNetcam": false, "lat": 8.5229, "_id": 3257, "description": ""}, {"name": "Salinas Grandes", "url": "/Salinas-Grandes-Surf-Report/1268/", "country": {"iso": "ni"}, "region": {"_id": 29}, "lon": -86.8623, "hasNetcam": false, "lat": 12.2586, "_id": 1268, "description": "Beachbreak"}, {"name": "Sally Anns", "url": "/Sally-Anns-Surf-Report/3241/", "country": {"iso": "ni"}, "region": {"_id": 29}, "lon": -85.8003, "hasNetcam": false, "lat": 11.1314, "_id": 3241, "description": ""}, {"name": "Salsa Brava", "url": "/Salsa-Brava-Surf-Report/469/", "country": {"iso": "cr"}, "region": {"_id": 29}, "lon": -82.753, "hasNetcam": false, "lat": 9.6612, "_id": 469, "description": ""}, {"name": "San Carlos Point", "url": "/San-Carlos-Point-Surf-Report/2521/", "country": {"iso": "pa"}, "region": {"_id": 29}, "lon": -79.9434, "hasNetcam": false, "lat": 8.4841, "_id": 2521, "description": ""}, {"name": "Sandbar", "url": "/Sandbar-Surf-Report/2513/", "country": {"iso": "pa"}, "region": {"_id": 29}, "lon": -81.6931, "hasNetcam": false, "lat": 8.0156, "_id": 2513, "description": ""}, {"name": "Santa Catalina - La Punta", "url": "/Santa-Catalina-La-Punta-Surf-Report/448/", "country": {"iso": "pa"}, "region": {"_id": 29}, "lon": -81.2577, "hasNetcam": false, "lat": 7.6235, "_id": 448, "description": ""}, {"name": "Silverbacks", "url": "/Silverbacks-Surf-Report/470/", "country": {"iso": "pa"}, "region": {"_id": 29}, "lon": -82.2044, "hasNetcam": false, "lat": 9.3619, "_id": 470, "description": ""}, {"name": "Tamarind", "url": "/Tamarind-Surf-Report/2568/", "country": {"iso": "ni"}, "region": {"_id": 29}, "lon": -85.8469, "hasNetcam": false, "lat": 11.2147, "_id": 2568, "description": ""}, {"name": "Tamarindo", "url": "/Tamarindo-Surf-Report/444/", "country": {"iso": "cr"}, "region": {"_id": 29}, "lon": -85.8419, "hasNetcam": false, "lat": 10.3031, "_id": 444, "description": "We don\\t have any details about Tamarindo at the moment."}, {"name": "The Point", "url": "/The-Point-Surf-Report/2512/", "country": {"iso": "pa"}, "region": {"_id": 29}, "lon": -81.7203, "hasNetcam": false, "lat": 8.0376, "_id": 2512, "description": ""}, {"name": "Tivives", "url": "/Tivives-Surf-Report/3237/", "country": {"iso": "cr"}, "region": {"_id": 29}, "lon": -84.7038, "hasNetcam": false, "lat": 9.8701, "_id": 3237, "description": ""}, {"name": "Tortuguero Beach", "url": "/Tortuguero-Beach-Surf-Report/2491/", "country": {"iso": "cr"}, "region": {"_id": 29}, "lon": -83.106, "hasNetcam": false, "lat": 10.0128, "_id": 2491, "description": ""}, {"name": "Westfalia", "url": "/Westfalia-Surf-Report/2467/", "country": {"iso": "cr"}, "region": {"_id": 29}, "lon": -83.0146, "hasNetcam": false, "lat": 9.9515, "_id": 2467, "description": ""}, {"name": "Witches Rock (Playa Naranjo)", "url": "/Witches-Rock-Playa-Naranjo-Surf-Report/443/", "country": {"iso": "cr"}, "region": {"_id": 29}, "lon": -85.6816, "hasNetcam": false, "lat": 10.7957, "_id": 443, "description": ""}, {"name": "Zancudo", "url": "/Zancudo-Surf-Report/2481/", "country": {"iso": "cr"}, "region": {"_id": 29}, "lon": -83.1278, "hasNetcam": false, "lat": 8.5046, "_id": 2481, "description": ""}]