[{"name": "Arrecifes", "url": "/Arrecifes-Surf-Report/3260/", "country": {"iso": "co"}, "region": {"_id": 87}, "lon": -73.9468, "hasNetcam": false, "lat": 11.3148, "_id": 3260, "description": ""}, {"name": "Buritaca", "url": "/Buritaca-Surf-Report/3255/", "country": {"iso": "co"}, "region": {"_id": 87}, "lon": -73.7659, "hasNetcam": false, "lat": 11.2646, "_id": 3255, "description": ""}, {"name": "Casa Grande", "url": "/Casa-Grande-Surf-Report/3243/", "country": {"iso": "co"}, "region": {"_id": 87}, "lon": -73.8552, "hasNetcam": false, "lat": 11.2743, "_id": 3243, "description": ""}, {"name": "Derecha Secreta", "url": "/Derecha-Secreta-Surf-Report/3336/", "country": {"iso": "co"}, "region": {"_id": 87}, "lon": -77.3501, "hasNetcam": false, "lat": 5.9763, "_id": 3336, "description": ""}, {"name": "El Bolsillo (Pradomar)", "url": "/El-Bolsillo-Pradomar-Surf-Report/1278/", "country": {"iso": "co"}, "region": {"_id": 87}, "lon": -74.9527, "hasNetcam": false, "lat": 11.0076, "_id": 1278, "description": "Great break located near to Barranquilla"}, {"name": "El Cantil", "url": "/El-Cantil-Surf-Report/3329/", "country": {"iso": "co"}, "region": {"_id": 87}, "lon": -77.4174, "hasNetcam": false, "lat": 5.6265, "_id": 3329, "description": ""}, {"name": "El Muelle", "url": "/El-Muelle-Surf-Report/3349/", "country": {"iso": "co"}, "region": {"_id": 87}, "lon": -74.9654, "hasNetcam": false, "lat": 10.9901, "_id": 3349, "description": "El muelle de Puerto Colombia. The pier. Very good left that works with wind."}, {"name": "El Mystic", "url": "/El-Mystic-Surf-Report/3339/", "country": {"iso": "co"}, "region": {"_id": 87}, "lon": -77.4762, "hasNetcam": false, "lat": 5.6025, "_id": 3339, "description": ""}, {"name": "El Valle", "url": "/El-Valle-Surf-Report/3328/", "country": {"iso": "co"}, "region": {"_id": 87}, "lon": -77.4375, "hasNetcam": false, "lat": 6.1109, "_id": 3328, "description": ""}, {"name": "Juan Tornillo", "url": "/Juan-Tornillo-Surf-Report/3330/", "country": {"iso": "co"}, "region": {"_id": 87}, "lon": -77.5097, "hasNetcam": false, "lat": 5.5419, "_id": 3330, "description": ""}, {"name": "Jurubida", "url": "/Jurubida-Surf-Report/3334/", "country": {"iso": "co"}, "region": {"_id": 87}, "lon": -77.2832, "hasNetcam": false, "lat": 5.841, "_id": 3334, "description": ""}, {"name": "Las Gaviotas", "url": "/Las-Gaviotas-Surf-Report/3253/", "country": {"iso": "co"}, "region": {"_id": 87}, "lon": -73.5665, "hasNetcam": false, "lat": 11.258, "_id": 3253, "description": ""}, {"name": "Las Velas", "url": "/Las-Velas-Surf-Report/3250/", "country": {"iso": "co"}, "region": {"_id": 87}, "lon": -75.536, "hasNetcam": false, "lat": 10.438, "_id": 3250, "description": ""}, {"name": "Los Naranjos", "url": "/Los-Naranjos-Surf-Report/3251/", "country": {"iso": "co"}, "region": {"_id": 87}, "lon": -73.8916, "hasNetcam": false, "lat": 11.2974, "_id": 3251, "description": ""}, {"name": "Nuqui", "url": "/Nuqui-Surf-Report/3335/", "country": {"iso": "co"}, "region": {"_id": 87}, "lon": -77.2741, "hasNetcam": false, "lat": 5.7147, "_id": 3335, "description": ""}, {"name": "Pela Pela", "url": "/Pela-Pela-Surf-Report/3337/", "country": {"iso": "co"}, "region": {"_id": 87}, "lon": -77.5082, "hasNetcam": false, "lat": 5.5679, "_id": 3337, "description": ""}, {"name": "Pico De Loro", "url": "/Pico-De-Loro-Surf-Report/3340/", "country": {"iso": "co"}, "region": {"_id": 87}, "lon": -77.5077, "hasNetcam": false, "lat": 5.569, "_id": 3340, "description": "We don\\t have any details about Pico El Oro at the moment."}, {"name": "Pradomar", "url": "/Pradomar-Surf-Report/2518/", "country": {"iso": "co"}, "region": {"_id": 87}, "lon": -74.9543, "hasNetcam": false, "lat": 11.005, "_id": 2518, "description": ""}, {"name": "Punta Roca - Colombia", "url": "/Punta-Roca-Colombia-Surf-Report/2519/", "country": {"iso": "co"}, "region": {"_id": 87}, "lon": -74.92, "hasNetcam": false, "lat": 11.0469, "_id": 2519, "description": ""}, {"name": "Secret Right", "url": "/Secret-Right-Surf-Report/3331/", "country": {"iso": "co"}, "region": {"_id": 87}, "lon": -77.5226, "hasNetcam": false, "lat": 5.4797, "_id": 3331, "description": ""}, {"name": "Terco", "url": "/Terco-Surf-Report/3332/", "country": {"iso": "co"}, "region": {"_id": 87}, "lon": -77.4281, "hasNetcam": false, "lat": 5.622, "_id": 3332, "description": ""}, {"name": "Termales", "url": "/Termales-Surf-Report/3338/", "country": {"iso": "co"}, "region": {"_id": 87}, "lon": -77.4466, "hasNetcam": false, "lat": 5.6059, "_id": 3338, "description": ""}, {"name": "Tribuga", "url": "/Tribuga-Surf-Report/3333/", "country": {"iso": "co"}, "region": {"_id": 87}, "lon": -77.2654, "hasNetcam": false, "lat": 5.7897, "_id": 3333, "description": ""}, {"name": "Viento Fresco", "url": "/Viento-Fresco-Surf-Report/3252/", "country": {"iso": "co"}, "region": {"_id": 87}, "lon": -73.7063, "hasNetcam": false, "lat": 11.2577, "_id": 3252, "description": ""}]