[{"name": "Ashdod", "url": "/Ashdod-Surf-Report/4219/", "country": {"iso": "il"}, "region": {"_id": 90}, "lon": 34.6356, "hasNetcam": false, "lat": 31.807, "_id": 4219, "description": "Beachbreak, left and right peaks."}, {"name": "Ashqelon", "url": "/Ashqelon-Surf-Report/3811/", "country": {"iso": "il"}, "region": {"_id": 90}, "lon": 34.5495, "hasNetcam": false, "lat": 31.6711, "_id": 3811, "description": "The southern city on the coast of Israel treasure some of the best high quality waves. well known Surf spots such as Ha-Sela (Ashqelon National park),Yamia, Dalila, Marina, Kever Ha-sheich, Gute and north shore (Hofit) produce excellent surfing conditions with waves that are breaking on sand banks and partial reefs. some of the spots works better then the other depends on swell and wind direction in consideration with wave height. A truly majestic historic city, offers lots of parking space and uncrowded beaches all year long."}, {"name": "Backdoor Haifa", "url": "/Backdoor-Haifa-Surf-Report/3987/", "country": {"iso": "il"}, "region": {"_id": 90}, "lon": 34.9816, "hasNetcam": false, "lat": 32.8366, "_id": 3987, "description": " "}, {"name": "Bat Yam", "url": "/Bat-Yam-Surf-Report/3662/", "country": {"iso": "il"}, "region": {"_id": 90}, "lon": 34.7363, "hasNetcam": false, "lat": 32.0178, "_id": 3662, "description": ""}, {"name": "Beit Yanai", "url": "/Beit-Yanai-Surf-Report/3783/", "country": {"iso": "il"}, "region": {"_id": 90}, "lon": 34.8638, "hasNetcam": false, "lat": 32.3914, "_id": 3783, "description": "The sandy beach of Beit Yanay."}, {"name": "Caesarea", "url": "/Caesarea-Surf-Report/3983/", "country": {"iso": "il"}, "region": {"_id": 90}, "lon": 34.9006, "hasNetcam": false, "lat": 32.529, "_id": 3983, "description": " "}, {"name": "Dolphinarium", "url": "/Dolphinarium-Surf-Report/3660/", "country": {"iso": "il"}, "region": {"_id": 90}, "lon": 34.7597, "hasNetcam": false, "lat": 32.0682, "_id": 3660, "description": ""}, {"name": "Gaza", "url": "/Gaza-Surf-Report/4493/", "country": {"iso": "il"}, "region": {"_id": 90}, "lon": 34.4284, "hasNetcam": false, "lat": 31.5202, "_id": 4493, "description": ""}, {"name": "Gazebbo Beach Club", "url": "/Gazebbo-Beach-Club-Surf-Report/3980/", "country": {"iso": "il"}, "region": {"_id": 90}, "lon": 34.8018, "hasNetcam": false, "lat": 32.1791, "_id": 3980, "description": "Located in the south part of hasharons beach the gazebbo beach club is one of the most beautiful spots on the Israeli coastline. \\\\r\\\\nFull services for surfers, rentals, hot showers, beach activities and of course us the Gazebbo crew. \\\\r\\\\nThe waves break on a soft sand bank with lots of tubes if the sand is in place it works all year round !!!"}, {"name": "Haifa - The Peak ", "url": "/Haifa-The-Peak-Surf-Report/3671/", "country": {"iso": "il"}, "region": {"_id": 90}, "lon": 34.9548, "hasNetcam": false, "lat": 32.8073, "_id": 3671, "description": "The peak at Haifa "}, {"name": "Hazuk Beach", "url": "/Hazuk-Beach-Surf-Report/3659/", "country": {"iso": "il"}, "region": {"_id": 90}, "lon": 34.7899, "hasNetcam": false, "lat": 32.1444, "_id": 3659, "description": ""}, {"name": "Hilton", "url": "/Hilton-Surf-Report/3658/", "country": {"iso": "il"}, "region": {"_id": 90}, "lon": 34.7683, "hasNetcam": false, "lat": 32.0887, "_id": 3658, "description": ""}, {"name": "Hof Maravi", "url": "/Hof-Maravi-Surf-Report/3663/", "country": {"iso": "il"}, "region": {"_id": 90}, "lon": 34.7555, "hasNetcam": false, "lat": 32.0581, "_id": 3663, "description": ""}, {"name": "Maagan Michael", "url": "/Maagan-Michael-Surf-Report/3984/", "country": {"iso": "il"}, "region": {"_id": 90}, "lon": 34.9068, "hasNetcam": false, "lat": 32.5581, "_id": 3984, "description": "Beach break. Breaks best from low to mid tide on West-Southwest swells. Doesn\\\\\\t work with North winds"}, {"name": "Marina - Herzelia ", "url": "/Marina-Herzelia-Surf-Report/3979/", "country": {"iso": "il"}, "region": {"_id": 90}, "lon": 34.7947, "hasNetcam": false, "lat": 32.166, "_id": 3979, "description": "Manmade point break,  \\\\r\\\\nStarts working at 4ft+ and can handle some size (8ft.).  A good option when shelter from S-SW wind is needed and when all other nearby points are closed out.\\\\r\\\\nOften crowded when working. Poor water quality due to pollution.  \\\\r\\\\n"}, {"name": "Netanya", "url": "/Netanya-Surf-Report/4558/", "country": {"iso": "il"}, "region": {"_id": 90}, "lon": 34.8328, "hasNetcam": false, "lat": 32.2736, "_id": 4558, "description": ""}, {"name": "Palmahim", "url": "/Palmahim-Surf-Report/3975/", "country": {"iso": "il"}, "region": {"_id": 90}, "lon": 34.6977, "hasNetcam": false, "lat": 31.9262, "_id": 3975, "description": "Nice secluded beach, holds the regular Israeli sand-break waves "}, {"name": "Rishon Lezion", "url": "/Rishon-Lezion-Surf-Report/3976/", "country": {"iso": "il"}, "region": {"_id": 90}, "lon": 34.7323, "hasNetcam": false, "lat": 32.002, "_id": 3976, "description": " "}, {"name": "Sdot Yam", "url": "/Sdot-Yam-Surf-Report/3982/", "country": {"iso": "il"}, "region": {"_id": 90}, "lon": 34.8879, "hasNetcam": false, "lat": 32.4833, "_id": 3982, "description": "Beach break, Breaks best from low to mid tide on a big Southerly swell.\\\\r\\\\n"}, {"name": "Sidna Ali", "url": "/Sidna-Ali-Surf-Report/3986/", "country": {"iso": "il"}, "region": {"_id": 90}, "lon": 34.8039, "hasNetcam": false, "lat": 32.1875, "_id": 3986, "description": "Quiet beach in the north of Herzelyia shadowed by an ancient mosque shifty peaks over sand bottom. "}, {"name": "Sokolov Beach", "url": "/Sokolov-Beach-Surf-Report/4640/", "country": {"iso": "il"}, "region": {"_id": 90}, "lon": 35.0864, "hasNetcam": false, "lat": 33.0047, "_id": 4640, "description": ""}, {"name": "Tel Baruch North", "url": "/Tel-Baruch-North-Surf-Report/3978/", "country": {"iso": "il"}, "region": {"_id": 90}, "lon": 34.7834, "hasNetcam": false, "lat": 32.1229, "_id": 3978, "description": " "}, {"name": "Topsy", "url": "/Topsy-Surf-Report/3661/", "country": {"iso": "il"}, "region": {"_id": 90}, "lon": 34.7694, "hasNetcam": false, "lat": 32.0921, "_id": 3661, "description": ""}, {"name": "Zikim", "url": "/Zikim-Surf-Report/3977/", "country": {"iso": "il"}, "region": {"_id": 90}, "lon": 34.5044, "hasNetcam": false, "lat": 31.613, "_id": 3977, "description": " "}, {"name": "Zvulun Herzelia ", "url": "/Zvulun-Herzelia-Surf-Report/3981/", "country": {"iso": "il"}, "region": {"_id": 90}, "lon": 34.7991, "hasNetcam": false, "lat": 32.1729, "_id": 3981, "description": "Beach break, right and left, fast.\\\\r\\\\nSwell range 2-6ft any bigger and it closes out. \\\\r\\\\nCrowd - week days crowded, weekend packed\\\\r\\\\n\\\\r\\\\n"}]