[{"name": "Clam Harbour Beach", "url": "/Clam-Harbour-Beach-Surf-Report/4709/", "country": {"iso": "ca"}, "region": {"_id": 26}, "lon": -62.8856, "hasNetcam": false, "lat": 44.721, "_id": 4709, "description": ""}, {"name": "Cow Bay", "url": "/Cow-Bay-Surf-Report/787/", "country": {"iso": "ca"}, "region": {"_id": 26}, "lon": -63.4163, "hasNetcam": false, "lat": 44.6181, "_id": 787, "description": ""}, {"name": "Lawrencetown", "url": "/Lawrencetown-Surf-Report/342/", "country": {"iso": "ca"}, "region": {"_id": 26}, "lon": -63.3262, "hasNetcam": false, "lat": 44.6392, "_id": 342, "description": "Also applies to Cow Bay"}, {"name": "Martinique Beach", "url": "/Martinique-Beach-Surf-Report/814/", "country": {"iso": "ca"}, "region": {"_id": 26}, "lon": -63.1167, "hasNetcam": false, "lat": 44.6833, "_id": 814, "description": ""}, {"name": "Nova Scotia Hurricane", "url": "/Nova-Scotia-Hurricane-Surf-Report/1096/", "country": {"iso": "ca"}, "region": {"_id": 26}, "lon": -63.3142, "hasNetcam": false, "lat": 44.4652, "_id": 1096, "description": ""}, {"name": "Point Michaud", "url": "/Point-Michaud-Surf-Report/759/", "country": {"iso": "ca"}, "region": {"_id": 26}, "lon": -60.6905, "hasNetcam": false, "lat": 45.5882, "_id": 759, "description": ""}, {"name": "Summerville", "url": "/Summerville-Surf-Report/788/", "country": {"iso": "ca"}, "region": {"_id": 26}, "lon": -64.816, "hasNetcam": false, "lat": 43.9485, "_id": 788, "description": ""}, {"name": "Western Head", "url": "/Western-Head-Surf-Report/343/", "country": {"iso": "ca"}, "region": {"_id": 26}, "lon": -64.6598, "hasNetcam": false, "lat": 43.9975, "_id": 343, "description": "Including all breaks around Liverpool"}, {"name": "White Point", "url": "/White-Point-Surf-Report/4523/", "country": {"iso": "ca"}, "region": {"_id": 26}, "lon": -64.7352, "hasNetcam": false, "lat": 43.9643, "_id": 4523, "description": ""}]