[
	{
		"_id": 3927,
		"name": "Agger",
		"description": "",
		"lat": 56.7837,
		"lon": 8.2285,
		"url": "/Agger-Surf-Report/3927/",
		"hasNetcam": false,
		"region": {
			"_id": 10
		},
		"country": {
			"iso": "dk"
		}
	},
	{
		"_id": 1117,
		"name": "Baltrum",
		"description": "",
		"lat": 53.7313,
		"lon": 7.3745,
		"url": "/Baltrum-Surf-Report/1117/",
		"hasNetcam": false,
		"region": {
			"_id": 10
		},
		"country": {
			"iso": "de"
		}
	},
	{
		"_id": 4429,
		"name": "Binz / Rügen",
		"description": "",
		"lat": 54.4059,
		"lon": 13.6073,
		"url": "/Binz-Rugen-Surf-Report/4429/",
		"hasNetcam": false,
		"region": {
			"_id": 10
		},
		"country": {
			"iso": "de"
		}
	},
	{
		"_id": 156,
		"name": "Borkum",
		"description": "A tourist beach that sometimes catches northerly swells",
		"lat": 53.6041,
		"lon": 6.6704,
		"url": "/Borkum-Surf-Report/156/",
		"hasNetcam": false,
		"region": {
			"_id": 10
		},
		"country": {
			"iso": "de"
		}
	},
	{
		"_id": 1836,
		"name": "Bunkers",
		"description": "",
		"lat": 57.0145,
		"lon": 8.4415,
		"url": "/Bunkers-Surf-Report/1836/",
		"hasNetcam": false,
		"region": {
			"_id": 10
		},
		"country": {
			"iso": "dk"
		}
	},
	{
		"_id": 4526,
		"name": "Gillelje Havn",
		"description": "",
		"lat": 56.1298,
		"lon": 12.3065,
		"url": "/Gillelje-Havn-Surf-Report/4526/",
		"hasNetcam": false,
		"region": {
			"_id": 10
		},
		"country": {
			"iso": "dk"
		}
	},
	{
		"_id": 1837,
		"name": "Hanstholm",
		"description": "",
		"lat": 57.1262,
		"lon": 8.6107,
		"url": "/Hanstholm-Surf-Report/1837/",
		"hasNetcam": false,
		"region": {
			"_id": 10
		},
		"country": {
			"iso": "dk"
		}
	},
	{
		"_id": 4528,
		"name": "Hundested Strand",
		"description": "",
		"lat": 55.9682,
		"lon": 11.847,
		"url": "/Hundested-Strand-Surf-Report/4528/",
		"hasNetcam": false,
		"region": {
			"_id": 10
		},
		"country": {
			"iso": "dk"
		}
	},
	{
		"_id": 159,
		"name": "Hvide Sande",
		"description": "Works in a northerly",
		"lat": 56.0001,
		"lon": 8.0997,
		"url": "/Hvide-Sande-Surf-Report/159/",
		"hasNetcam": false,
		"region": {
			"_id": 10
		},
		"country": {
			"iso": "dk"
		}
	},
	{
		"_id": 1116,
		"name": "Juist",
		"description": "",
		"lat": 53.6818,
		"lon": 6.995,
		"url": "/Juist-Surf-Report/1116/",
		"hasNetcam": false,
		"region": {
			"_id": 10
		},
		"country": {
			"iso": "de"
		}
	},
	{
		"_id": 161,
		"name": "Klitmøller",
		"description": "One the best spots in Denmark",
		"lat": 57.0449,
		"lon": 8.4869,
		"url": "/Klitmoller-Surf-Report/161/",
		"hasNetcam": false,
		"region": {
			"_id": 10
		},
		"country": {
			"iso": "dk"
		}
	},
	{
		"_id": 1118,
		"name": "Langeoog",
		"description": "",
		"lat": 53.7568,
		"lon": 7.5239,
		"url": "/Langeoog-Surf-Report/1118/",
		"hasNetcam": false,
		"region": {
			"_id": 10
		},
		"country": {
			"iso": "de"
		}
	},
	{
		"_id": 3925,
		"name": "Løkken",
		"description": "",
		"lat": 57.3734,
		"lon": 9.7056,
		"url": "/Lokken-Surf-Report/3925/",
		"hasNetcam": false,
		"region": {
			"_id": 10
		},
		"country": {
			"iso": "dk"
		}
	},
	{
		"_id": 155,
		"name": "Norderney",
		"description": "Catches wind waves and groundswells",
		"lat": 53.7138,
		"lon": 7.1504,
		"url": "/Norderney-Surf-Report/155/",
		"hasNetcam": false,
		"region": {
			"_id": 10
		},
		"country": {
			"iso": "de"
		}
	},
	{
		"_id": 160,
		"name": "Nørre Vorupør",
		"description": "Covering the beaches south of Klitmøller",
		"lat": 56.9629,
		"lon": 8.368,
		"url": "/Norre-Vorupor-Surf-Report/160/",
		"hasNetcam": false,
		"region": {
			"_id": 10
		},
		"country": {
			"iso": "dk"
		}
	},
	{
		"_id": 4527,
		"name": "Raageleje",
		"description": "",
		"lat": 56.1074,
		"lon": 12.1743,
		"url": "/Raageleje-Surf-Report/4527/",
		"hasNetcam": false,
		"region": {
			"_id": 10
		},
		"country": {
			"iso": "dk"
		}
	},
	{
		"_id": 4529,
		"name": "Rødvig",
		"description": "",
		"lat": 55.2519,
		"lon": 12.3805,
		"url": "/Rodvig-Surf-Report/4529/",
		"hasNetcam": false,
		"region": {
			"_id": 10
		},
		"country": {
			"iso": "dk"
		}
	},
	{
		"_id": 1119,
		"name": "Spiekeroog",
		"description": "",
		"lat": 53.782,
		"lon": 7.7223,
		"url": "/Spiekeroog-Surf-Report/1119/",
		"hasNetcam": false,
		"region": {
			"_id": 10
		},
		"country": {
			"iso": "de"
		}
	},
	{
		"_id": 157,
		"name": "St Peter Ording",
		"description": "Sandbar peaks",
		"lat": 54.33,
		"lon": 8.59,
		"url": "/St-Peter-Ording-Surf-Report/157/",
		"hasNetcam": false,
		"region": {
			"_id": 10
		},
		"country": {
			"iso": "de"
		}
	},
	{
		"_id": 158,
		"name": "Sylt",
		"description": "Covering all the spots on the Island of Sylt",
		"lat": 54.9028,
		"lon": 8.2928,
		"url": "/Sylt-Surf-Report/158/",
		"hasNetcam": false,
		"region": {
			"_id": 10
		},
		"country": {
			"iso": "de"
		}
	},
	{
		"_id": 3926,
		"name": "Thorsminde",
		"description": "",
		"lat": 56.3907,
		"lon": 8.1103,
		"url": "/Thorsminde-Surf-Report/3926/",
		"hasNetcam": false,
		"region": {
			"_id": 10
		},
		"country": {
			"iso": "dk"
		}
	},
	{
		"_id": 1120,
		"name": "Wangerooge",
		"description": "",
		"lat": 53.794,
		"lon": 7.9001,
		"url": "/Wangerooge-Surf-Report/1120/",
		"hasNetcam": false,
		"region": {
			"_id": 10
		},
		"country": {
			"iso": "de"
		}
	},
	{
		"_id": 4049,
		"name": "Weisse Düne",
		"description": "",
		"lat": 53.7242,
		"lon": 7.2058,
		"url": "/Weisse-Dune-Surf-Report/4049/",
		"hasNetcam": false,
		"region": {
			"_id": 10
		},
		"country": {
			"iso": "de"
		}
	}
]
